kml_name;kml_description;kml_description_2;longitude;latitude;height
Abana;;;36.05354977;33.67558148;0
Arnon;;;36.04477936;31.27410754;0
Besor;;;35.02319639;31.0008592;0
Brook of Egypt;;;34.15382152;30.69414263;0
Chebar;;;44.47948378;33.18987732;0
Euphrates;;;40.95355894;38.71838941;0
Habor;;;40.00856572;36.85912549;0
Jabbok;;;36.67081043;31.9478846;0
Jordan;;;35.57752588;32.71003674;0
Kishon;;;35.34609593;32.70596912;0
Kanah 1;;;35.24132265;32.14605088;0
Nile;;;31.31741628;2.137734316;0
Pharpar;;;35.83227137;33.36591415;0
Shihor-libnath;;;34.93970625;32.55040114;0
Tigris;;;40.9085835;38.68432205;0
Ulai;;;46.71902991;34.10425118;0
Zered;;;35.78321692;30.65690891;0
Salt Sea;;;35.55810471;31.7638925;0
Sea of Galilee;;;35.57768341;32.71005618;0
Syrtis;;;15.21579817;32.37220611;0
Abana / Barada River;"2Kgs <a href=""https://www.biblegateway.com/passage/?search=2Kgs.5.12&version=ESV"">5:12</a>";;36.239828;33.540154;0
Abana / Barada River;"2Kgs <a href=""https://www.biblegateway.com/passage/?search=2Kgs.5.12&version=ESV"">5:12</a>";;36.305;33.513542;0
Abarim (50% confidence);"Num <a href=""https://www.biblegateway.com/passage/?search=Num.27.12&version=ESV"">27:12</a>, <a href=""https://www.biblegateway.com/passage/?search=Num.33.47&version=ESV"">33:47</a>, <a href=""https://www.biblegateway.com/passage/?search=Num.33.48&version=ESV"">33:48</a>, Deut <a href=""https://www.biblegateway.com/passage/?search=Deut.32.49&version=ESV"">32:49</a>, Jer <a href=""https://www.biblegateway.com/passage/?search=Jer.22.20&version=ESV"">22:20</a>";;35.70392;31.73113;0
Abarim (40% confidence);"Num <a href=""https://www.biblegateway.com/passage/?search=Num.27.12&version=ESV"">27:12</a>, <a href=""https://www.biblegateway.com/passage/?search=Num.33.47&version=ESV"">33:47</a>, <a href=""https://www.biblegateway.com/passage/?search=Num.33.48&version=ESV"">33:48</a>, Deut <a href=""https://www.biblegateway.com/passage/?search=Deut.32.49&version=ESV"">32:49</a>, Jer <a href=""https://www.biblegateway.com/passage/?search=Jer.22.20&version=ESV"">22:20</a>";;35.69115;31.73113;0
Abarim (30% confidence);"Num <a href=""https://www.biblegateway.com/passage/?search=Num.27.12&version=ESV"">27:12</a>, <a href=""https://www.biblegateway.com/passage/?search=Num.33.47&version=ESV"">33:47</a>, <a href=""https://www.biblegateway.com/passage/?search=Num.33.48&version=ESV"">33:48</a>, Deut <a href=""https://www.biblegateway.com/passage/?search=Deut.32.49&version=ESV"">32:49</a>, Jer <a href=""https://www.biblegateway.com/passage/?search=Jer.22.20&version=ESV"">22:20</a>";;35.62734;31.73113;0
Abarim (20% confidence);"Num <a href=""https://www.biblegateway.com/passage/?search=Num.27.12&version=ESV"">27:12</a>, <a href=""https://www.biblegateway.com/passage/?search=Num.33.47&version=ESV"">33:47</a>, <a href=""https://www.biblegateway.com/passage/?search=Num.33.48&version=ESV"">33:48</a>, Deut <a href=""https://www.biblegateway.com/passage/?search=Deut.32.49&version=ESV"">32:49</a>, Jer <a href=""https://www.biblegateway.com/passage/?search=Jer.22.20&version=ESV"">22:20</a>";;35.65287;31.79701;0
Abarim (10% confidence);"Num <a href=""https://www.biblegateway.com/passage/?search=Num.27.12&version=ESV"">27:12</a>, <a href=""https://www.biblegateway.com/passage/?search=Num.33.47&version=ESV"">33:47</a>, <a href=""https://www.biblegateway.com/passage/?search=Num.33.48&version=ESV"">33:48</a>, Deut <a href=""https://www.biblegateway.com/passage/?search=Deut.32.49&version=ESV"">32:49</a>, Jer <a href=""https://www.biblegateway.com/passage/?search=Jer.22.20&version=ESV"">22:20</a>";;35.56354;31.56646;0
Abarim;"Num <a href=""https://www.biblegateway.com/passage/?search=Num.27.12&version=ESV"">27:12</a>, <a href=""https://www.biblegateway.com/passage/?search=Num.33.47&version=ESV"">33:47</a>, <a href=""https://www.biblegateway.com/passage/?search=Num.33.48&version=ESV"">33:48</a>, Deut <a href=""https://www.biblegateway.com/passage/?search=Deut.32.49&version=ESV"">32:49</a>, Jer <a href=""https://www.biblegateway.com/passage/?search=Jer.22.20&version=ESV"">22:20</a>";;35.7152;31.7539;0
Abdon / Tel Avdon;"Josh <a href=""https://www.biblegateway.com/passage/?search=Josh.21.30&version=ESV"">21:30</a>, 1Chr <a href=""https://www.biblegateway.com/passage/?search=1Chr.6.74&version=ESV"">6:74</a>";;35.161916;33.047692;0
Abel-beth-maacah / Tel Abel Beth Maacah;"2Sam <a href=""https://www.biblegateway.com/passage/?search=2Sam.20.14&version=ESV"">20:14</a>, <a href=""https://www.biblegateway.com/passage/?search=2Sam.20.15&version=ESV"">20:15</a>, <a href=""https://www.biblegateway.com/passage/?search=2Sam.20.18&version=ESV"">20:18</a>, 1Kgs <a href=""https://www.biblegateway.com/passage/?search=1Kgs.15.20&version=ESV"">15:20</a>, 2Kgs <a href=""https://www.biblegateway.com/passage/?search=2Kgs.15.29&version=ESV"">15:29</a>, 2Chr <a href=""https://www.biblegateway.com/passage/?search=2Chr.16.4&version=ESV"">16:4</a>";;35.581007;33.258051;0
Abel-keramim / Naur;"Judg <a href=""https://www.biblegateway.com/passage/?search=Judg.11.33&version=ESV"">11:33</a>";;35.82938;31.867559;0
Abel-keramim / Sahab;"Judg <a href=""https://www.biblegateway.com/passage/?search=Judg.11.33&version=ESV"">11:33</a>";;36.00486;31.87561;0
Abel-keramim / Tall al Umayri;"Judg <a href=""https://www.biblegateway.com/passage/?search=Judg.11.33&version=ESV"">11:33</a>";;35.8881;31.8686;0
Abel-keramim / Merj Ekkeh;"Judg <a href=""https://www.biblegateway.com/passage/?search=Judg.11.33&version=ESV"">11:33</a>";another name for Aija;35.855908;31.905663;0
Abel-keramim / Khirbet es Suq;"Judg <a href=""https://www.biblegateway.com/passage/?search=Judg.11.33&version=ESV"">11:33</a>";;35.928768;31.87606;0
Abel-keramim / Kom Yajuz;"Judg <a href=""https://www.biblegateway.com/passage/?search=Judg.11.33&version=ESV"">11:33</a>";;35.917261;32.030433;0
Abel-meholah / Tell Abu Sus;"Judg <a href=""https://www.biblegateway.com/passage/?search=Judg.7.22&version=ESV"">7:22</a>, 1Kgs <a href=""https://www.biblegateway.com/passage/?search=1Kgs.4.12&version=ESV"">4:12</a>, <a href=""https://www.biblegateway.com/passage/?search=1Kgs.19.16&version=ESV"">19:16</a>";;35.56089;32.3743;0
Abel-meholah / Tell el Maqlub;"Judg <a href=""https://www.biblegateway.com/passage/?search=Judg.7.22&version=ESV"">7:22</a>, 1Kgs <a href=""https://www.biblegateway.com/passage/?search=1Kgs.4.12&version=ESV"">4:12</a>, <a href=""https://www.biblegateway.com/passage/?search=1Kgs.19.16&version=ESV"">19:16</a>";;35.6823;32.40237;0
Abel-meholah / Tell el Hilu;"Judg <a href=""https://www.biblegateway.com/passage/?search=Judg.7.22&version=ESV"">7:22</a>, 1Kgs <a href=""https://www.biblegateway.com/passage/?search=1Kgs.4.12&version=ESV"">4:12</a>, <a href=""https://www.biblegateway.com/passage/?search=1Kgs.19.16&version=ESV"">19:16</a>";;35.50465;32.32656;0
Abel-meholah / Ras el Kharube;"Judg <a href=""https://www.biblegateway.com/passage/?search=Judg.7.22&version=ESV"">7:22</a>, 1Kgs <a href=""https://www.biblegateway.com/passage/?search=1Kgs.4.12&version=ESV"">4:12</a>, <a href=""https://www.biblegateway.com/passage/?search=1Kgs.19.16&version=ESV"">19:16</a>";;35.4933;32.1762;0
Abel-meholah / Tell el Hamme;"Judg <a href=""https://www.biblegateway.com/passage/?search=Judg.7.22&version=ESV"">7:22</a>, 1Kgs <a href=""https://www.biblegateway.com/passage/?search=1Kgs.4.12&version=ESV"">4:12</a>, <a href=""https://www.biblegateway.com/passage/?search=1Kgs.19.16&version=ESV"">19:16</a>";;35.5994;32.4718;0
Abel-meholah / Tall al Meqbarah;"Judg <a href=""https://www.biblegateway.com/passage/?search=Judg.7.22&version=ESV"">7:22</a>, 1Kgs <a href=""https://www.biblegateway.com/passage/?search=1Kgs.4.12&version=ESV"">4:12</a>, <a href=""https://www.biblegateway.com/passage/?search=1Kgs.19.16&version=ESV"">19:16</a>";;35.5905;32.4002;0
Abel-mizraim / near the mouth of the Jordan River;"Gen <a href=""https://www.biblegateway.com/passage/?search=Gen.50.11&version=ESV"">50:11</a>";;35.530445;31.914888;0
Abel-mizraim / Deir Hajla;"Gen <a href=""https://www.biblegateway.com/passage/?search=Gen.50.11&version=ESV"">50:11</a>";another name for Bilhah;35.501161;31.820379;0
Abel-mizraim / Ain Hajlah;"Gen <a href=""https://www.biblegateway.com/passage/?search=Gen.50.11&version=ESV"">50:11</a>";another name for Bilhah;35.512222;31.828056;0
Abel-mizraim / Wadi al Arish;"Gen <a href=""https://www.biblegateway.com/passage/?search=Gen.50.11&version=ESV"">50:11</a>";another name for the Jordan 1;34.154122;30.69379;0
Abel-mizraim / Wadi al Arish;"Gen <a href=""https://www.biblegateway.com/passage/?search=Gen.50.11&version=ESV"">50:11</a>";another name for the Jordan 1;33.80649;31.145708;0
Abel-mizraim / Nile River;"Gen <a href=""https://www.biblegateway.com/passage/?search=Gen.50.11&version=ESV"">50:11</a>";another name for the Jordan 1;32.50641;15.64124;0
Abel-mizraim / Nile River;"Gen <a href=""https://www.biblegateway.com/passage/?search=Gen.50.11&version=ESV"">50:11</a>";another name for the Jordan 1;30.3667;31.4653;0
Abel-mizraim / Pelusiac branch of the Nile;"Gen <a href=""https://www.biblegateway.com/passage/?search=Gen.50.11&version=ESV"">50:11</a>";another name for the Jordan 1;31.26686;29.897558;0
Abel-mizraim / Pelusiac branch of the Nile;"Gen <a href=""https://www.biblegateway.com/passage/?search=Gen.50.11&version=ESV"">50:11</a>";another name for the Jordan 1;32.546139;31.042512;0
Abel-mizraim / Nahal HaBesor;"Gen <a href=""https://www.biblegateway.com/passage/?search=Gen.50.11&version=ESV"">50:11</a>";another name for the Kidron;34.750294;30.899342;0
Abel-mizraim / Nahal HaBesor;"Gen <a href=""https://www.biblegateway.com/passage/?search=Gen.50.11&version=ESV"">50:11</a>";another name for the Kidron;34.37568;31.46423;0
Abel-mizraim / Tall al Ajjul;"Gen <a href=""https://www.biblegateway.com/passage/?search=Gen.50.11&version=ESV"">50:11</a>";;34.4041;31.467;0
Abel-shittim / Tall el Hammam;"Num <a href=""https://www.biblegateway.com/passage/?search=Num.33.49&version=ESV"">33:49</a>";another name for Telassar;35.67368;31.84018;0
Abel-shittim / Tall Kafrayn;"Num <a href=""https://www.biblegateway.com/passage/?search=Num.33.49&version=ESV"">33:49</a>";another name for Telassar;35.65296;31.85055;0
Abel-shittim / Tell Matabi;"Num <a href=""https://www.biblegateway.com/passage/?search=Num.33.49&version=ESV"">33:49</a>";another name for Telem;35.68404;31.84161;0
Abel-shittim / Tall el Hammam;"Num <a href=""https://www.biblegateway.com/passage/?search=Num.33.49&version=ESV"">33:49</a>";;35.67368;31.84018;0
Abel-shittim / Tall Kafrayn;"Num <a href=""https://www.biblegateway.com/passage/?search=Num.33.49&version=ESV"">33:49</a>";;35.65296;31.85055;0
Abiezer / about 15 km around Afula;"Judg <a href=""https://www.biblegateway.com/passage/?search=Judg.8.2&version=ESV"">8:2</a>";about 15 km around Ophrah 2;35.29;32.7406;0
Abiezer / about 15 km around Afula;"Judg <a href=""https://www.biblegateway.com/passage/?search=Judg.8.2&version=ESV"">8:2</a>";about 15 km around Ophrah 2;35.29;32.6057;0
Abiezer / about 15 km around Et Taiyibeh;"Judg <a href=""https://www.biblegateway.com/passage/?search=Judg.8.2&version=ESV"">8:2</a>";about 15 km around Ophrah 2;35.44661;32.73875;0
Abiezer / about 15 km around Et Taiyibeh;"Judg <a href=""https://www.biblegateway.com/passage/?search=Judg.8.2&version=ESV"">8:2</a>";about 15 km around Ophrah 2;35.44661;32.60385;0
Abiezer / about 15 km around Khirbet Taiyibeh;"Judg <a href=""https://www.biblegateway.com/passage/?search=Judg.8.2&version=ESV"">8:2</a>";about 15 km around Ophrah 2;35.17854;32.65208;0
Abiezer / about 15 km around Khirbet Taiyibeh;"Judg <a href=""https://www.biblegateway.com/passage/?search=Judg.8.2&version=ESV"">8:2</a>";about 15 km around Ophrah 2;35.17854;32.51718;0
Abiezer / about 15 km around Ramat Rahel;"Judg <a href=""https://www.biblegateway.com/passage/?search=Judg.8.2&version=ESV"">8:2</a>";about 15 km around Ophrah 2;35.2169;31.8748;0
Abiezer / about 15 km around Ramat Rahel;"Judg <a href=""https://www.biblegateway.com/passage/?search=Judg.8.2&version=ESV"">8:2</a>";about 15 km around Ophrah 2;35.216896;31.739901;0
Abiezer / about 15 km around Silat ad Dhahr;"Judg <a href=""https://www.biblegateway.com/passage/?search=Judg.8.2&version=ESV"">8:2</a>";about 15 km around Ophrah 2;35.18456;32.45439;0
Abiezer / about 15 km around Silat ad Dhahr;"Judg <a href=""https://www.biblegateway.com/passage/?search=Judg.8.2&version=ESV"">8:2</a>";about 15 km around Ophrah 2;35.184564;32.319492;0
Abiezer / about 15 km around Farata;"Judg <a href=""https://www.biblegateway.com/passage/?search=Judg.8.2&version=ESV"">8:2</a>";about 15 km around Ophrah 2;35.16583;32.32545;0
Abiezer / about 15 km around Farata;"Judg <a href=""https://www.biblegateway.com/passage/?search=Judg.8.2&version=ESV"">8:2</a>";about 15 km around Ophrah 2;35.165833;32.190556;0
Abiezer / about 15 km around Tell el Farah;"Judg <a href=""https://www.biblegateway.com/passage/?search=Judg.8.2&version=ESV"">8:2</a>";about 15 km around Ophrah 2;35.3378;32.4223;0
Abiezer / about 15 km around Tell el Farah;"Judg <a href=""https://www.biblegateway.com/passage/?search=Judg.8.2&version=ESV"">8:2</a>";about 15 km around Ophrah 2;35.3378;32.2874;0
Abila / Merj Ekkeh;"Luke <a href=""https://www.biblegateway.com/passage/?search=Luke.3.1&version=ESV"">3:1</a>";;35.855908;31.905663;0
Abila Lysaniou / Souq Wadi Barada;"Luke <a href=""https://www.biblegateway.com/passage/?search=Luke.3.1&version=ESV"">3:1</a>";;36.105833;33.626667;0
Abilene (90% confidence);"Luke <a href=""https://www.biblegateway.com/passage/?search=Luke.3.1&version=ESV"">3:1</a>";;36.1568;33.70139;0
Abilene (80% confidence);"Luke <a href=""https://www.biblegateway.com/passage/?search=Luke.3.1&version=ESV"">3:1</a>";;36.1341;33.70139;0
Abilene (70% confidence);"Luke <a href=""https://www.biblegateway.com/passage/?search=Luke.3.1&version=ESV"">3:1</a>";;36.1114;33.68245;0
Abilene (60% confidence);"Luke <a href=""https://www.biblegateway.com/passage/?search=Luke.3.1&version=ESV"">3:1</a>";;36.06601;33.64457;0
Abilene (50% confidence);"Luke <a href=""https://www.biblegateway.com/passage/?search=Luke.3.1&version=ESV"">3:1</a>";;36.06601;33.64457;0
Abilene (40% confidence);"Luke <a href=""https://www.biblegateway.com/passage/?search=Luke.3.1&version=ESV"">3:1</a>";;36.1114;33.72033;0
Abilene (30% confidence);"Luke <a href=""https://www.biblegateway.com/passage/?search=Luke.3.1&version=ESV"">3:1</a>";;36.02062;33.62563;0
Abilene (20% confidence);"Luke <a href=""https://www.biblegateway.com/passage/?search=Luke.3.1&version=ESV"">3:1</a>";;35.99793;33.60669;0
Abilene (10% confidence);"Luke <a href=""https://www.biblegateway.com/passage/?search=Luke.3.1&version=ESV"">3:1</a>";;35.97523;33.58775;0
Abilene;"Luke <a href=""https://www.biblegateway.com/passage/?search=Luke.3.1&version=ESV"">3:1</a>";;36.105833;33.626667;0
Abronah / Ein Evrona;"Num <a href=""https://www.biblegateway.com/passage/?search=Num.33.34&version=ESV"">33:34</a>, <a href=""https://www.biblegateway.com/passage/?search=Num.33.35&version=ESV"">33:35</a>";;35.013917;29.672913;0
Abronah / Aqaba;"Num <a href=""https://www.biblegateway.com/passage/?search=Num.33.34&version=ESV"">33:34</a>, <a href=""https://www.biblegateway.com/passage/?search=Num.33.35&version=ESV"">33:35</a>";another name for Etam 3;34.999999;29.530676;0
Abronah / Tell el Kheleifeh;"Num <a href=""https://www.biblegateway.com/passage/?search=Num.33.34&version=ESV"">33:34</a>, <a href=""https://www.biblegateway.com/passage/?search=Num.33.35&version=ESV"">33:35</a>";another name for Etam 3;34.980258;29.547181;0
Abronah / Eilat;"Num <a href=""https://www.biblegateway.com/passage/?search=Num.33.34&version=ESV"">33:34</a>, <a href=""https://www.biblegateway.com/passage/?search=Num.33.35&version=ESV"">33:35</a>";another name for Ether 1;34.96352;29.57148;0
Abronah / in Qa?an Naqb;"Num <a href=""https://www.biblegateway.com/passage/?search=Num.33.34&version=ESV"">33:34</a>, <a href=""https://www.biblegateway.com/passage/?search=Num.33.35&version=ESV"">33:35</a>";;34.863513;29.607168;0
Abronah / in Qa?an Naqb;"Num <a href=""https://www.biblegateway.com/passage/?search=Num.33.34&version=ESV"">33:34</a>, <a href=""https://www.biblegateway.com/passage/?search=Num.33.35&version=ESV"">33:35</a>";;34.84979;29.6131;0
Abronah / Eilat;"Num <a href=""https://www.biblegateway.com/passage/?search=Num.33.34&version=ESV"">33:34</a>, <a href=""https://www.biblegateway.com/passage/?search=Num.33.35&version=ESV"">33:35</a>";;34.96352;29.57148;0
Accad / Tell ed Der;"Gen <a href=""https://www.biblegateway.com/passage/?search=Gen.10.10&version=ESV"">10:10</a>";;44.29833;33.09979;0
Accad / Babylon;"Gen <a href=""https://www.biblegateway.com/passage/?search=Gen.10.10&version=ESV"">10:10</a>";another name for Bealoth 1;44.422222;32.543333;0
Accad / Tell Sheshubar;"Gen <a href=""https://www.biblegateway.com/passage/?search=Gen.10.10&version=ESV"">10:10</a>";;44.391944;33.025556;0
Accad / Dhuluiya;"Gen <a href=""https://www.biblegateway.com/passage/?search=Gen.10.10&version=ESV"">10:10</a>";;44.22484;34.03283;0
Accad / Ishan Mizyad;"Gen <a href=""https://www.biblegateway.com/passage/?search=Gen.10.10&version=ESV"">10:10</a>";;44.555928;32.591302;0
Accad / Qadisiyah;"Gen <a href=""https://www.biblegateway.com/passage/?search=Gen.10.10&version=ESV"">10:10</a>";;43.959646;34.095475;0
Accad / Tell Muhammad;"Gen <a href=""https://www.biblegateway.com/passage/?search=Gen.10.10&version=ESV"">10:10</a>";;44.468205;33.300568;0
Acco / Tel Akko;"Judg <a href=""https://www.biblegateway.com/passage/?search=Judg.1.31&version=ESV"">1:31</a>";;35.088333;32.921111;0
Achaia;"Acts <a href=""https://www.biblegateway.com/passage/?search=Acts.18.12&version=ESV"">18:12</a>, <a href=""https://www.biblegateway.com/passage/?search=Acts.18.27&version=ESV"">18:27</a>, <a href=""https://www.biblegateway.com/passage/?search=Acts.19.21&version=ESV"">19:21</a>, Rom <a href=""https://www.biblegateway.com/passage/?search=Rom.15.26&version=ESV"">15:26</a>, 1Cor <a href=""https://www.biblegateway.com/passage/?search=1Cor.16.15&version=ESV"">16:15</a>, 2Cor <a href=""https://www.biblegateway.com/passage/?search=2Cor.1.1&version=ESV"">1:1</a>, <a href=""https://www.biblegateway.com/passage/?search=2Cor.9.2&version=ESV"">9:2</a>, <a href=""https://www.biblegateway.com/passage/?search=2Cor.11.10&version=ESV"">11:10</a>, 1Thess <a href=""https://www.biblegateway.com/passage/?search=1Thess.1.7&version=ESV"">1:7</a>, <a href=""https://www.biblegateway.com/passage/?search=1Thess.1.8&version=ESV"">1:8</a>";;19.193036;40.524494;0
Achaia;"Acts <a href=""https://www.biblegateway.com/passage/?search=Acts.18.12&version=ESV"">18:12</a>, <a href=""https://www.biblegateway.com/passage/?search=Acts.18.27&version=ESV"">18:27</a>, <a href=""https://www.biblegateway.com/passage/?search=Acts.19.21&version=ESV"">19:21</a>, Rom <a href=""https://www.biblegateway.com/passage/?search=Rom.15.26&version=ESV"">15:26</a>, 1Cor <a href=""https://www.biblegateway.com/passage/?search=1Cor.16.15&version=ESV"">16:15</a>, 2Cor <a href=""https://www.biblegateway.com/passage/?search=2Cor.1.1&version=ESV"">1:1</a>, <a href=""https://www.biblegateway.com/passage/?search=2Cor.9.2&version=ESV"">9:2</a>, <a href=""https://www.biblegateway.com/passage/?search=2Cor.11.10&version=ESV"">11:10</a>, 1Thess <a href=""https://www.biblegateway.com/passage/?search=1Thess.1.7&version=ESV"">1:7</a>, <a href=""https://www.biblegateway.com/passage/?search=1Thess.1.8&version=ESV"">1:8</a>";;22.54;38.72;0
Achshaph / Tell Keisan;"Josh <a href=""https://www.biblegateway.com/passage/?search=Josh.11.1&version=ESV"">11:1</a>, <a href=""https://www.biblegateway.com/passage/?search=Josh.12.20&version=ESV"">12:20</a>, <a href=""https://www.biblegateway.com/passage/?search=Josh.19.25&version=ESV"">19:25</a>";;35.15133;32.872761;0
Achshaph / Tel Regev;"Josh <a href=""https://www.biblegateway.com/passage/?search=Josh.11.1&version=ESV"">11:1</a>, <a href=""https://www.biblegateway.com/passage/?search=Josh.12.20&version=ESV"">12:20</a>, <a href=""https://www.biblegateway.com/passage/?search=Josh.19.25&version=ESV"">19:25</a>";;35.09027;32.75885;0
Achshaph / Tell Bir el Gharbi;"Josh <a href=""https://www.biblegateway.com/passage/?search=Josh.11.1&version=ESV"">11:1</a>, <a href=""https://www.biblegateway.com/passage/?search=Josh.12.20&version=ESV"">12:20</a>, <a href=""https://www.biblegateway.com/passage/?search=Josh.19.25&version=ESV"">19:25</a>";;35.169444;32.901389;0
Achshaph / Tel Kabri;"Josh <a href=""https://www.biblegateway.com/passage/?search=Josh.11.1&version=ESV"">11:1</a>, <a href=""https://www.biblegateway.com/passage/?search=Josh.12.20&version=ESV"">12:20</a>, <a href=""https://www.biblegateway.com/passage/?search=Josh.19.25&version=ESV"">19:25</a>";;35.1391;33.0084;0
Achzib 1 / Tel el Beida;"Josh <a href=""https://www.biblegateway.com/passage/?search=Josh.15.44&version=ESV"">15:44</a>, Mic <a href=""https://www.biblegateway.com/passage/?search=Mic.1.14&version=ESV"">1:14</a>";;34.953019;31.642074;0
Achzib 1 / Ain Kezbeh;"Josh <a href=""https://www.biblegateway.com/passage/?search=Josh.15.44&version=ESV"">15:44</a>, Mic <a href=""https://www.biblegateway.com/passage/?search=Mic.1.14&version=ESV"">1:14</a>";;35.003282;31.690129;0
Achzib 2 / Tel Achziv;"Josh <a href=""https://www.biblegateway.com/passage/?search=Josh.19.29&version=ESV"">19:29</a>, Judg <a href=""https://www.biblegateway.com/passage/?search=Judg.1.31&version=ESV"">1:31</a>";;35.102652;33.048278;0
Adadah / Khirbet Aro?er;"Josh <a href=""https://www.biblegateway.com/passage/?search=Josh.15.22&version=ESV"">15:22</a>";;34.97907;31.15214;0
Adadah / Khirbet Aro?er;"Josh <a href=""https://www.biblegateway.com/passage/?search=Josh.15.22&version=ESV"">15:22</a>";another name for Baalah 1;34.97907;31.15214;0
Adadah / Arair;"Josh <a href=""https://www.biblegateway.com/passage/?search=Josh.15.22&version=ESV"">15:22</a>";another name for Baalah 1;35.819389;31.4708;0
Adadah / Tel Esdar;"Josh <a href=""https://www.biblegateway.com/passage/?search=Josh.15.22&version=ESV"">15:22</a>";another name for Baalah 1;34.975175;31.169025;0
Adadah / Umm Sweiwineh;"Josh <a href=""https://www.biblegateway.com/passage/?search=Josh.15.22&version=ESV"">15:22</a>";another name for Baalah 1;35.925091;31.924568;0
Adadah / Khirbet Udena;"Josh <a href=""https://www.biblegateway.com/passage/?search=Josh.15.22&version=ESV"">15:22</a>";another name for Baalah 1;35.871319;31.97016;0
Adadah / Erjan;"Josh <a href=""https://www.biblegateway.com/passage/?search=Josh.15.22&version=ESV"">15:22</a>";another name for Baalah 1;35.920658;31.989281;0
Adam / Tell ed Damiyeh;"Josh <a href=""https://www.biblegateway.com/passage/?search=Josh.3.16&version=ESV"">3:16</a>";;35.546789;32.103933;0
Adamah / Qarn Hattin;"Josh <a href=""https://www.biblegateway.com/passage/?search=Josh.19.36&version=ESV"">19:36</a>";;35.459722;32.799722;0
Adamah / Hajar ed Damm;"Josh <a href=""https://www.biblegateway.com/passage/?search=Josh.19.36&version=ESV"">19:36</a>";;35.574903;32.94162;0
Adamah / Tel Adami;"Josh <a href=""https://www.biblegateway.com/passage/?search=Josh.19.36&version=ESV"">19:36</a>";;35.459167;32.749167;0
Adamah / Khirbet esh Shiba;"Josh <a href=""https://www.biblegateway.com/passage/?search=Josh.19.36&version=ESV"">19:36</a>";;35.4175;32.931111;0
Adami-nekeb / Tel Adami;"Josh <a href=""https://www.biblegateway.com/passage/?search=Josh.19.33&version=ESV"">19:33</a>";;35.459167;32.749167;0
Adami-nekeb / Khirbet Bessum;"Josh <a href=""https://www.biblegateway.com/passage/?search=Josh.19.33&version=ESV"">19:33</a>";;35.481228;32.734475;0
Adami-nekeb / Khirbet Idma;"Josh <a href=""https://www.biblegateway.com/passage/?search=Josh.19.33&version=ESV"">19:33</a>";;35.539398;32.634297;0
Adasa / Khirbet Adasa;"Josh <a href=""https://www.biblegateway.com/passage/?search=Josh.15.3&version=ESV"">15:3</a>";;35.16363;31.84881;0
Addar / within 10 km of Ain el Qudeirat;"Josh <a href=""https://www.biblegateway.com/passage/?search=Josh.15.3&version=ESV"">15:3</a>";another name for Heshmon;34.42222;30.73827;0
Addar / within 10 km of Ain el Qudeirat;"Josh <a href=""https://www.biblegateway.com/passage/?search=Josh.15.3&version=ESV"">15:3</a>";another name for Heshmon;34.422222;30.648333;0
Addar / Ein Qedeis;"Josh <a href=""https://www.biblegateway.com/passage/?search=Josh.15.3&version=ESV"">15:3</a>";another name for Heshmon;34.484081;30.583378;0
Addar / Khirbet el Qudeirat;"Josh <a href=""https://www.biblegateway.com/passage/?search=Josh.15.3&version=ESV"">15:3</a>";another name for Heshmon;34.422222;30.648333;0
Addar / Khirbet el Qaryatein;"Josh <a href=""https://www.biblegateway.com/passage/?search=Josh.15.3&version=ESV"">15:3</a>";another name for Heshmon;35.124376;31.344952;0
Addar / within 10 km of Ein Qedeis;"Josh <a href=""https://www.biblegateway.com/passage/?search=Josh.15.3&version=ESV"">15:3</a>";another name for Hethlon;34.48408;30.67331;0
Addar / within 10 km of Ein Qedeis;"Josh <a href=""https://www.biblegateway.com/passage/?search=Josh.15.3&version=ESV"">15:3</a>";another name for Hethlon;34.484081;30.583378;0
Addar / Mesudat Ein Qedeis;"Josh <a href=""https://www.biblegateway.com/passage/?search=Josh.15.3&version=ESV"">15:3</a>";another name for Hethlon;34.51416;30.59462;0
Addar / Har Avnon;"Josh <a href=""https://www.biblegateway.com/passage/?search=Josh.15.3&version=ESV"">15:3</a>";another name for Hethlon;34.971389;30.974444;0
Addar / Ein Qedeis;"Josh <a href=""https://www.biblegateway.com/passage/?search=Josh.15.3&version=ESV"">15:3</a>";;34.484081;30.583378;0
Addon (90% confidence);"Ezra <a href=""https://www.biblegateway.com/passage/?search=Ezra.2.59&version=ESV"">2:59</a>, Neh <a href=""https://www.biblegateway.com/passage/?search=Neh.7.61&version=ESV"">7:61</a>";;44.15765;32.09004;0
Addon (80% confidence);"Ezra <a href=""https://www.biblegateway.com/passage/?search=Ezra.2.59&version=ESV"">2:59</a>, Neh <a href=""https://www.biblegateway.com/passage/?search=Neh.7.61&version=ESV"">7:61</a>";;44.78598;33.04525;0
Addon (70% confidence);"Ezra <a href=""https://www.biblegateway.com/passage/?search=Ezra.2.59&version=ESV"">2:59</a>, Neh <a href=""https://www.biblegateway.com/passage/?search=Neh.7.61&version=ESV"">7:61</a>";;43.84349;32.09004;0
Addon (60% confidence);"Ezra <a href=""https://www.biblegateway.com/passage/?search=Ezra.2.59&version=ESV"">2:59</a>, Neh <a href=""https://www.biblegateway.com/passage/?search=Neh.7.61&version=ESV"">7:61</a>";;45.88555;31.54421;0
Addon (50% confidence);"Ezra <a href=""https://www.biblegateway.com/passage/?search=Ezra.2.59&version=ESV"">2:59</a>, Neh <a href=""https://www.biblegateway.com/passage/?search=Neh.7.61&version=ESV"">7:61</a>";;46.82804;32.09004;0
Addon (40% confidence);"Ezra <a href=""https://www.biblegateway.com/passage/?search=Ezra.2.59&version=ESV"">2:59</a>, Neh <a href=""https://www.biblegateway.com/passage/?search=Neh.7.61&version=ESV"">7:61</a>";;43.52932;33.72755;0
Addon (30% confidence);"Ezra <a href=""https://www.biblegateway.com/passage/?search=Ezra.2.59&version=ESV"">2:59</a>, Neh <a href=""https://www.biblegateway.com/passage/?search=Neh.7.61&version=ESV"">7:61</a>";;43.21516;33.86401;0
Addon (20% confidence);"Ezra <a href=""https://www.biblegateway.com/passage/?search=Ezra.2.59&version=ESV"">2:59</a>, Neh <a href=""https://www.biblegateway.com/passage/?search=Neh.7.61&version=ESV"">7:61</a>";;43.21516;33.86401;0
Addon (10% confidence);"Ezra <a href=""https://www.biblegateway.com/passage/?search=Ezra.2.59&version=ESV"">2:59</a>, Neh <a href=""https://www.biblegateway.com/passage/?search=Neh.7.61&version=ESV"">7:61</a>";;43.05808;34.00047;0
Addon / in Babylonia;"Ezra <a href=""https://www.biblegateway.com/passage/?search=Ezra.2.59&version=ESV"">2:59</a>, Neh <a href=""https://www.biblegateway.com/passage/?search=Neh.7.61&version=ESV"">7:61</a>";;44.422222;32.543333;0
Adithaim / Al Haditha;"Josh <a href=""https://www.biblegateway.com/passage/?search=Josh.15.36&version=ESV"">15:36</a>";;34.951764;31.963319;0
Adithaim / Khirbet el Hadatha;"Josh <a href=""https://www.biblegateway.com/passage/?search=Josh.15.36&version=ESV"">15:36</a>";;35.0146;31.87978;0
Adithaim / Khirbet Kheishum;"Josh <a href=""https://www.biblegateway.com/passage/?search=Josh.15.36&version=ESV"">15:36</a>";;34.953544;31.728465;0
Adithaim / Khirbet Qeiyafa;"Josh <a href=""https://www.biblegateway.com/passage/?search=Josh.15.36&version=ESV"">15:36</a>";;34.9575;31.6963;0
Admah / in the region south of the Lisan;"Gen <a href=""https://www.biblegateway.com/passage/?search=Gen.10.19&version=ESV"">10:19</a>, <a href=""https://www.biblegateway.com/passage/?search=Gen.14.2&version=ESV"">14:2</a>, <a href=""https://www.biblegateway.com/passage/?search=Gen.14.8&version=ESV"">14:8</a>, Deut <a href=""https://www.biblegateway.com/passage/?search=Deut.29.23&version=ESV"">29:23</a>, Hos <a href=""https://www.biblegateway.com/passage/?search=Hos.11.8&version=ESV"">11:8</a>";within 30 km of Beeroth;35.408824;31.314783;0
Admah / in the region south of the Lisan;"Gen <a href=""https://www.biblegateway.com/passage/?search=Gen.10.19&version=ESV"">10:19</a>, <a href=""https://www.biblegateway.com/passage/?search=Gen.14.2&version=ESV"">14:2</a>, <a href=""https://www.biblegateway.com/passage/?search=Gen.14.8&version=ESV"">14:8</a>, Deut <a href=""https://www.biblegateway.com/passage/?search=Deut.29.23&version=ESV"">29:23</a>, Hos <a href=""https://www.biblegateway.com/passage/?search=Hos.11.8&version=ESV"">11:8</a>";within 30 km of Beersheba 1;35.449223;31.20849;0
Admah / in the region north of the Dead Sea;"Gen <a href=""https://www.biblegateway.com/passage/?search=Gen.10.19&version=ESV"">10:19</a>, <a href=""https://www.biblegateway.com/passage/?search=Gen.14.2&version=ESV"">14:2</a>, <a href=""https://www.biblegateway.com/passage/?search=Gen.14.8&version=ESV"">14:8</a>, Deut <a href=""https://www.biblegateway.com/passage/?search=Deut.29.23&version=ESV"">29:23</a>, Hos <a href=""https://www.biblegateway.com/passage/?search=Hos.11.8&version=ESV"">11:8</a>";;35.641497;31.738839;0
Admah / in the region north of the Dead Sea;"Gen <a href=""https://www.biblegateway.com/passage/?search=Gen.10.19&version=ESV"">10:19</a>, <a href=""https://www.biblegateway.com/passage/?search=Gen.14.2&version=ESV"">14:2</a>, <a href=""https://www.biblegateway.com/passage/?search=Gen.14.8&version=ESV"">14:8</a>, Deut <a href=""https://www.biblegateway.com/passage/?search=Deut.29.23&version=ESV"">29:23</a>, Hos <a href=""https://www.biblegateway.com/passage/?search=Hos.11.8&version=ESV"">11:8</a>";;35.595278;31.795;0
Admah / Tell ed Damiyeh;"Gen <a href=""https://www.biblegateway.com/passage/?search=Gen.10.19&version=ESV"">10:19</a>, <a href=""https://www.biblegateway.com/passage/?search=Gen.14.2&version=ESV"">14:2</a>, <a href=""https://www.biblegateway.com/passage/?search=Gen.14.8&version=ESV"">14:8</a>, Deut <a href=""https://www.biblegateway.com/passage/?search=Deut.29.23&version=ESV"">29:23</a>, Hos <a href=""https://www.biblegateway.com/passage/?search=Hos.11.8&version=ESV"">11:8</a>";another name for Aijalon 1;35.546789;32.103933;0
Admah / Khanazir;"Gen <a href=""https://www.biblegateway.com/passage/?search=Gen.10.19&version=ESV"">10:19</a>, <a href=""https://www.biblegateway.com/passage/?search=Gen.14.2&version=ESV"">14:2</a>, <a href=""https://www.biblegateway.com/passage/?search=Gen.14.8&version=ESV"">14:8</a>, Deut <a href=""https://www.biblegateway.com/passage/?search=Deut.29.23&version=ESV"">29:23</a>, Hos <a href=""https://www.biblegateway.com/passage/?search=Hos.11.8&version=ESV"">11:8</a>";;35.437069;30.87767;0
Admah / Tall Nimrin;"Gen <a href=""https://www.biblegateway.com/passage/?search=Gen.10.19&version=ESV"">10:19</a>, <a href=""https://www.biblegateway.com/passage/?search=Gen.14.2&version=ESV"">14:2</a>, <a href=""https://www.biblegateway.com/passage/?search=Gen.14.8&version=ESV"">14:8</a>, Deut <a href=""https://www.biblegateway.com/passage/?search=Deut.29.23&version=ESV"">29:23</a>, Hos <a href=""https://www.biblegateway.com/passage/?search=Hos.11.8&version=ESV"">11:8</a>";;35.624546;31.90094;0
Admah / Feifa;"Gen <a href=""https://www.biblegateway.com/passage/?search=Gen.10.19&version=ESV"">10:19</a>, <a href=""https://www.biblegateway.com/passage/?search=Gen.14.2&version=ESV"">14:2</a>, <a href=""https://www.biblegateway.com/passage/?search=Gen.14.8&version=ESV"">14:8</a>, Deut <a href=""https://www.biblegateway.com/passage/?search=Deut.29.23&version=ESV"">29:23</a>, Hos <a href=""https://www.biblegateway.com/passage/?search=Hos.11.8&version=ESV"">11:8</a>";;35.458842;30.939606;0
Adoraim / Dura;"2Chr <a href=""https://www.biblegateway.com/passage/?search=2Chr.11.9&version=ESV"">11:9</a>";;35.0275;31.50506;0
Adramyttium / Oren;"Acts <a href=""https://www.biblegateway.com/passage/?search=Acts.27.2&version=ESV"">27:2</a>";;26.932716;39.500667;0
Adriatic Sea / Adriatic and Ionian Seas;"Acts <a href=""https://www.biblegateway.com/passage/?search=Acts.27.27&version=ESV"">27:27</a>";;19.30603;40.29128;0
Adriatic Sea / Adriatic and Ionian Seas;"Acts <a href=""https://www.biblegateway.com/passage/?search=Acts.27.27&version=ESV"">27:27</a>";;19;38;0
Adulis;"Gen <a href=""https://www.biblegateway.com/passage/?search=Gen.38.1&version=NIV"">38:1</a>, Josh <a href=""https://www.biblegateway.com/passage/?search=Josh.12.15&version=ESV"">12:15</a>, <a href=""https://www.biblegateway.com/passage/?search=Josh.15.35&version=ESV"">15:35</a>, 1Sam <a href=""https://www.biblegateway.com/passage/?search=1Sam.22.1&version=ESV"">22:1</a>, 2Sam <a href=""https://www.biblegateway.com/passage/?search=2Sam.23.13&version=ESV"">23:13</a>, 1Chr <a href=""https://www.biblegateway.com/passage/?search=1Chr.11.15&version=ESV"">11:15</a>, 2Chr <a href=""https://www.biblegateway.com/passage/?search=2Chr.11.7&version=ESV"">11:7</a>, Neh <a href=""https://www.biblegateway.com/passage/?search=Neh.11.30&version=ESV"">11:30</a>, Mic <a href=""https://www.biblegateway.com/passage/?search=Mic.1.15&version=ESV"">1:15</a>";;39.660552;15.263061;0
Adullam / Khirbet esh Sheikh Madhkur;"Gen <a href=""https://www.biblegateway.com/passage/?search=Gen.38.1&version=NIV"">38:1</a>, Josh <a href=""https://www.biblegateway.com/passage/?search=Josh.12.15&version=ESV"">12:15</a>, <a href=""https://www.biblegateway.com/passage/?search=Josh.15.35&version=ESV"">15:35</a>, 1Sam <a href=""https://www.biblegateway.com/passage/?search=1Sam.22.1&version=ESV"">22:1</a>, 2Sam <a href=""https://www.biblegateway.com/passage/?search=2Sam.23.13&version=ESV"">23:13</a>, 1Chr <a href=""https://www.biblegateway.com/passage/?search=1Chr.11.15&version=ESV"">11:15</a>, 2Chr <a href=""https://www.biblegateway.com/passage/?search=2Chr.11.7&version=ESV"">11:7</a>, Neh <a href=""https://www.biblegateway.com/passage/?search=Neh.11.30&version=ESV"">11:30</a>, Mic <a href=""https://www.biblegateway.com/passage/?search=Mic.1.15&version=ESV"">1:15</a>";;35.001667;31.651667;0
Adullam / Khirbet Id el Minya;"Gen <a href=""https://www.biblegateway.com/passage/?search=Gen.38.1&version=NIV"">38:1</a>, Josh <a href=""https://www.biblegateway.com/passage/?search=Josh.12.15&version=ESV"">12:15</a>, <a href=""https://www.biblegateway.com/passage/?search=Josh.15.35&version=ESV"">15:35</a>, 1Sam <a href=""https://www.biblegateway.com/passage/?search=1Sam.22.1&version=ESV"">22:1</a>, 2Sam <a href=""https://www.biblegateway.com/passage/?search=2Sam.23.13&version=ESV"">23:13</a>, 1Chr <a href=""https://www.biblegateway.com/passage/?search=1Chr.11.15&version=ESV"">11:15</a>, 2Chr <a href=""https://www.biblegateway.com/passage/?search=2Chr.11.7&version=ESV"">11:7</a>, Neh <a href=""https://www.biblegateway.com/passage/?search=Neh.11.30&version=ESV"">11:30</a>, Mic <a href=""https://www.biblegateway.com/passage/?search=Mic.1.15&version=ESV"">1:15</a>";;35.003889;31.655;0
Adummim;"Josh <a href=""https://www.biblegateway.com/passage/?search=Josh.15.7&version=ESV"">15:7</a>, <a href=""https://www.biblegateway.com/passage/?search=Josh.18.17&version=ESV"">18:17</a>";;35.410118;31.838305;0
Adummim;"Josh <a href=""https://www.biblegateway.com/passage/?search=Josh.15.7&version=ESV"">15:7</a>, <a href=""https://www.biblegateway.com/passage/?search=Josh.18.17&version=ESV"">18:17</a>";;35.361505;31.8175;0
Aenon / Umm el Umdan;"John <a href=""https://www.biblegateway.com/passage/?search=John.3.23&version=ESV"">3:23</a>";;35.52821;32.38152;0
Aenon / Khirbet Einun;"John <a href=""https://www.biblegateway.com/passage/?search=John.3.23&version=ESV"">3:23</a>";;35.3974;32.30181;0
Aenon;"John <a href=""https://www.biblegateway.com/passage/?search=John.3.23&version=ESV"">3:23</a>";;35.549444;31.8375;0
Aenon / Salim;"John <a href=""https://www.biblegateway.com/passage/?search=John.3.23&version=ESV"">3:23</a>";;35.33033;32.20871;0
Aenon / Khirbet Khishash ed Deir;"John <a href=""https://www.biblegateway.com/passage/?search=John.3.23&version=ESV"">3:23</a>";;35.53353;32.38511;0
Ahava / within 250 km of Babylon;"Ezra <a href=""https://www.biblegateway.com/passage/?search=Ezra.8.15&version=ESV"">8:15</a>, <a href=""https://www.biblegateway.com/passage/?search=Ezra.8.21&version=ESV"">8:21</a>, <a href=""https://www.biblegateway.com/passage/?search=Ezra.8.31&version=ESV"">8:31</a>";;44.42222;34.79163;0
Ahava / within 250 km of Babylon;"Ezra <a href=""https://www.biblegateway.com/passage/?search=Ezra.8.15&version=ESV"">8:15</a>, <a href=""https://www.biblegateway.com/passage/?search=Ezra.8.21&version=ESV"">8:21</a>, <a href=""https://www.biblegateway.com/passage/?search=Ezra.8.31&version=ESV"">8:31</a>";;44.422222;32.543333;0
Ahava / Hit;"Ezra <a href=""https://www.biblegateway.com/passage/?search=Ezra.8.15&version=ESV"">8:15</a>, <a href=""https://www.biblegateway.com/passage/?search=Ezra.8.21&version=ESV"">8:21</a>, <a href=""https://www.biblegateway.com/passage/?search=Ezra.8.31&version=ESV"">8:31</a>";;42.823141;33.643918;0
Ahava / Opis;"Ezra <a href=""https://www.biblegateway.com/passage/?search=Ezra.8.15&version=ESV"">8:15</a>, <a href=""https://www.biblegateway.com/passage/?search=Ezra.8.21&version=ESV"">8:21</a>, <a href=""https://www.biblegateway.com/passage/?search=Ezra.8.31&version=ESV"">8:31</a>";;44.6991;33.1815;0
Ahava / Tell Ishnayt;"Ezra <a href=""https://www.biblegateway.com/passage/?search=Ezra.8.15&version=ESV"">8:15</a>, <a href=""https://www.biblegateway.com/passage/?search=Ezra.8.21&version=ESV"">8:21</a>, <a href=""https://www.biblegateway.com/passage/?search=Ezra.8.31&version=ESV"">8:31</a>";;44.289872;33.775182;0
Ahava / Mes?in;"Ezra <a href=""https://www.biblegateway.com/passage/?search=Ezra.8.15&version=ESV"">8:15</a>, <a href=""https://www.biblegateway.com/passage/?search=Ezra.8.21&version=ESV"">8:21</a>, <a href=""https://www.biblegateway.com/passage/?search=Ezra.8.31&version=ESV"">8:31</a>";;44.244982;33.823671;0
Ahlab / Khirbet al Mahalib;"Judg <a href=""https://www.biblegateway.com/passage/?search=Judg.1.31&version=ESV"">1:31</a>";;35.243368;33.317804;0
Ahlab / Ras el Biyada;"Judg <a href=""https://www.biblegateway.com/passage/?search=Judg.1.31&version=ESV"">1:31</a>";;35.168333;33.164722;0
Ai 1 / Et Tell;"Gen <a href=""https://www.biblegateway.com/passage/?search=Gen.12.8&version=ESV"">12:8</a>, <a href=""https://www.biblegateway.com/passage/?search=Gen.13.3&version=ESV"">13:3</a>, Josh <a href=""https://www.biblegateway.com/passage/?search=Josh.7.2&version=ESV"">7:2</a>, <a href=""https://www.biblegateway.com/passage/?search=Josh.7.3&version=ESV"">7:3</a>, <a href=""https://www.biblegateway.com/passage/?search=Josh.7.4&version=ESV"">7:4</a>, <a href=""https://www.biblegateway.com/passage/?search=Josh.7.5&version=ESV"">7:5</a>, <a href=""https://www.biblegateway.com/passage/?search=Josh.8.1&version=ESV"">8:1</a>, <a href=""https://www.biblegateway.com/passage/?search=Josh.8.2&version=ESV"">8:2</a>, <a href=""https://www.biblegateway.com/passage/?search=Josh.8.3&version=ESV"">8:3</a>, <a href=""https://www.biblegateway.com/passage/?search=Josh.8.5&version=NLT"">8:5</a>, <a href=""https://www.biblegateway.com/passage/?search=Josh.8.9&version=ESV"">8:9</a>, <a href=""https://www.biblegateway.com/passage/?search=Josh.8.10&version=ESV"">8:10</a>, <a href=""https://www.biblegateway.com/passage/?search=Josh.8.11&version=ESV"">8:11</a>, <a href=""https://www.biblegateway.com/passage/?search=Josh.8.12&version=ESV"">8:12</a>, <a href=""https://www.biblegateway.com/passage/?search=Josh.8.14&version=ESV"">8:14</a>, <a href=""https://www.biblegateway.com/passage/?search=Josh.8.16&version=NIV"">8:16</a>, <a href=""https://www.biblegateway.com/passage/?search=Josh.8.17&version=ESV"">8:17</a>, <a href=""https://www.biblegateway.com/passage/?search=Josh.8.18&version=ESV"">8:18</a>, <a href=""https://www.biblegateway.com/passage/?search=Josh.8.20&version=ESV"">8:20</a>, <a href=""https://www.biblegateway.com/passage/?search=Josh.8.21&version=ESV"">8:21</a>, <a href=""https://www.biblegateway.com/passage/?search=Josh.8.22&version=NET"">8:22</a>, <a href=""https://www.biblegateway.com/passage/?search=Josh.8.23&version=ESV"">8:23</a>, <a href=""https://www.biblegateway.com/passage/?search=Josh.8.24&version=ESV"">8:24</a>, <a href=""https://www.biblegateway.com/passage/?search=Josh.8.25&version=ESV"">8:25</a>, <a href=""https://www.biblegateway.com/passage/?search=Josh.8.26&version=ESV"">8:26</a>, <a href=""https://www.biblegateway.com/passage/?search=Josh.8.28&version=ESV"">8:28</a>, <a href=""https://www.biblegateway.com/passage/?search=Josh.8.29&version=ESV"">8:29</a>, <a href=""https://www.biblegateway.com/passage/?search=Josh.9.1&version=CSB"">9:1</a>, <a href=""https://www.biblegateway.com/passage/?search=Josh.9.3&version=ESV"">9:3</a>, <a href=""https://www.biblegateway.com/passage/?search=Josh.10.1&version=ESV"">10:1</a>, <a href=""https://www.biblegateway.com/passage/?search=Josh.10.2&version=ESV"">10:2</a>, <a href=""https://www.biblegateway.com/passage/?search=Josh.12.9&version=ESV"">12:9</a>";;35.261111;31.916944;0
Ai 1 / Khirbet el Maqatir;"Gen <a href=""https://www.biblegateway.com/passage/?search=Gen.12.8&version=ESV"">12:8</a>, <a href=""https://www.biblegateway.com/passage/?search=Gen.13.3&version=ESV"">13:3</a>, Josh <a href=""https://www.biblegateway.com/passage/?search=Josh.7.2&version=ESV"">7:2</a>, <a href=""https://www.biblegateway.com/passage/?search=Josh.7.3&version=ESV"">7:3</a>, <a href=""https://www.biblegateway.com/passage/?search=Josh.7.4&version=ESV"">7:4</a>, <a href=""https://www.biblegateway.com/passage/?search=Josh.7.5&version=ESV"">7:5</a>, <a href=""https://www.biblegateway.com/passage/?search=Josh.8.1&version=ESV"">8:1</a>, <a href=""https://www.biblegateway.com/passage/?search=Josh.8.2&version=ESV"">8:2</a>, <a href=""https://www.biblegateway.com/passage/?search=Josh.8.3&version=ESV"">8:3</a>, <a href=""https://www.biblegateway.com/passage/?search=Josh.8.5&version=NLT"">8:5</a>, <a href=""https://www.biblegateway.com/passage/?search=Josh.8.9&version=ESV"">8:9</a>, <a href=""https://www.biblegateway.com/passage/?search=Josh.8.10&version=ESV"">8:10</a>, <a href=""https://www.biblegateway.com/passage/?search=Josh.8.11&version=ESV"">8:11</a>, <a href=""https://www.biblegateway.com/passage/?search=Josh.8.12&version=ESV"">8:12</a>, <a href=""https://www.biblegateway.com/passage/?search=Josh.8.14&version=ESV"">8:14</a>, <a href=""https://www.biblegateway.com/passage/?search=Josh.8.16&version=NIV"">8:16</a>, <a href=""https://www.biblegateway.com/passage/?search=Josh.8.17&version=ESV"">8:17</a>, <a href=""https://www.biblegateway.com/passage/?search=Josh.8.18&version=ESV"">8:18</a>, <a href=""https://www.biblegateway.com/passage/?search=Josh.8.20&version=ESV"">8:20</a>, <a href=""https://www.biblegateway.com/passage/?search=Josh.8.21&version=ESV"">8:21</a>, <a href=""https://www.biblegateway.com/passage/?search=Josh.8.22&version=NET"">8:22</a>, <a href=""https://www.biblegateway.com/passage/?search=Josh.8.23&version=ESV"">8:23</a>, <a href=""https://www.biblegateway.com/passage/?search=Josh.8.24&version=ESV"">8:24</a>, <a href=""https://www.biblegateway.com/passage/?search=Josh.8.25&version=ESV"">8:25</a>, <a href=""https://www.biblegateway.com/passage/?search=Josh.8.26&version=ESV"">8:26</a>, <a href=""https://www.biblegateway.com/passage/?search=Josh.8.28&version=ESV"">8:28</a>, <a href=""https://www.biblegateway.com/passage/?search=Josh.8.29&version=ESV"">8:29</a>, <a href=""https://www.biblegateway.com/passage/?search=Josh.9.1&version=CSB"">9:1</a>, <a href=""https://www.biblegateway.com/passage/?search=Josh.9.3&version=ESV"">9:3</a>, <a href=""https://www.biblegateway.com/passage/?search=Josh.10.1&version=ESV"">10:1</a>, <a href=""https://www.biblegateway.com/passage/?search=Josh.10.2&version=ESV"">10:2</a>, <a href=""https://www.biblegateway.com/passage/?search=Josh.12.9&version=ESV"">12:9</a>";;35.2496;31.91476;0
Ai 1 / Khirbet Nisieh;"Gen <a href=""https://www.biblegateway.com/passage/?search=Gen.12.8&version=ESV"">12:8</a>, <a href=""https://www.biblegateway.com/passage/?search=Gen.13.3&version=ESV"">13:3</a>, Josh <a href=""https://www.biblegateway.com/passage/?search=Josh.7.2&version=ESV"">7:2</a>, <a href=""https://www.biblegateway.com/passage/?search=Josh.7.3&version=ESV"">7:3</a>, <a href=""https://www.biblegateway.com/passage/?search=Josh.7.4&version=ESV"">7:4</a>, <a href=""https://www.biblegateway.com/passage/?search=Josh.7.5&version=ESV"">7:5</a>, <a href=""https://www.biblegateway.com/passage/?search=Josh.8.1&version=ESV"">8:1</a>, <a href=""https://www.biblegateway.com/passage/?search=Josh.8.2&version=ESV"">8:2</a>, <a href=""https://www.biblegateway.com/passage/?search=Josh.8.3&version=ESV"">8:3</a>, <a href=""https://www.biblegateway.com/passage/?search=Josh.8.5&version=NLT"">8:5</a>, <a href=""https://www.biblegateway.com/passage/?search=Josh.8.9&version=ESV"">8:9</a>, <a href=""https://www.biblegateway.com/passage/?search=Josh.8.10&version=ESV"">8:10</a>, <a href=""https://www.biblegateway.com/passage/?search=Josh.8.11&version=ESV"">8:11</a>, <a href=""https://www.biblegateway.com/passage/?search=Josh.8.12&version=ESV"">8:12</a>, <a href=""https://www.biblegateway.com/passage/?search=Josh.8.14&version=ESV"">8:14</a>, <a href=""https://www.biblegateway.com/passage/?search=Josh.8.16&version=NIV"">8:16</a>, <a href=""https://www.biblegateway.com/passage/?search=Josh.8.17&version=ESV"">8:17</a>, <a href=""https://www.biblegateway.com/passage/?search=Josh.8.18&version=ESV"">8:18</a>, <a href=""https://www.biblegateway.com/passage/?search=Josh.8.20&version=ESV"">8:20</a>, <a href=""https://www.biblegateway.com/passage/?search=Josh.8.21&version=ESV"">8:21</a>, <a href=""https://www.biblegateway.com/passage/?search=Josh.8.22&version=NET"">8:22</a>, <a href=""https://www.biblegateway.com/passage/?search=Josh.8.23&version=ESV"">8:23</a>, <a href=""https://www.biblegateway.com/passage/?search=Josh.8.24&version=ESV"">8:24</a>, <a href=""https://www.biblegateway.com/passage/?search=Josh.8.25&version=ESV"">8:25</a>, <a href=""https://www.biblegateway.com/passage/?search=Josh.8.26&version=ESV"">8:26</a>, <a href=""https://www.biblegateway.com/passage/?search=Josh.8.28&version=ESV"">8:28</a>, <a href=""https://www.biblegateway.com/passage/?search=Josh.8.29&version=ESV"">8:29</a>, <a href=""https://www.biblegateway.com/passage/?search=Josh.9.1&version=CSB"">9:1</a>, <a href=""https://www.biblegateway.com/passage/?search=Josh.9.3&version=ESV"">9:3</a>, <a href=""https://www.biblegateway.com/passage/?search=Josh.10.1&version=ESV"">10:1</a>, <a href=""https://www.biblegateway.com/passage/?search=Josh.10.2&version=ESV"">10:2</a>, <a href=""https://www.biblegateway.com/passage/?search=Josh.12.9&version=ESV"">12:9</a>";;35.228619;31.897515;0
Ai 1 / Khirbet Haiyan;"Gen <a href=""https://www.biblegateway.com/passage/?search=Gen.12.8&version=ESV"">12:8</a>, <a href=""https://www.biblegateway.com/passage/?search=Gen.13.3&version=ESV"">13:3</a>, Josh <a href=""https://www.biblegateway.com/passage/?search=Josh.7.2&version=ESV"">7:2</a>, <a href=""https://www.biblegateway.com/passage/?search=Josh.7.3&version=ESV"">7:3</a>, <a href=""https://www.biblegateway.com/passage/?search=Josh.7.4&version=ESV"">7:4</a>, <a href=""https://www.biblegateway.com/passage/?search=Josh.7.5&version=ESV"">7:5</a>, <a href=""https://www.biblegateway.com/passage/?search=Josh.8.1&version=ESV"">8:1</a>, <a href=""https://www.biblegateway.com/passage/?search=Josh.8.2&version=ESV"">8:2</a>, <a href=""https://www.biblegateway.com/passage/?search=Josh.8.3&version=ESV"">8:3</a>, <a href=""https://www.biblegateway.com/passage/?search=Josh.8.5&version=NLT"">8:5</a>, <a href=""https://www.biblegateway.com/passage/?search=Josh.8.9&version=ESV"">8:9</a>, <a href=""https://www.biblegateway.com/passage/?search=Josh.8.10&version=ESV"">8:10</a>, <a href=""https://www.biblegateway.com/passage/?search=Josh.8.11&version=ESV"">8:11</a>, <a href=""https://www.biblegateway.com/passage/?search=Josh.8.12&version=ESV"">8:12</a>, <a href=""https://www.biblegateway.com/passage/?search=Josh.8.14&version=ESV"">8:14</a>, <a href=""https://www.biblegateway.com/passage/?search=Josh.8.16&version=NIV"">8:16</a>, <a href=""https://www.biblegateway.com/passage/?search=Josh.8.17&version=ESV"">8:17</a>, <a href=""https://www.biblegateway.com/passage/?search=Josh.8.18&version=ESV"">8:18</a>, <a href=""https://www.biblegateway.com/passage/?search=Josh.8.20&version=ESV"">8:20</a>, <a href=""https://www.biblegateway.com/passage/?search=Josh.8.21&version=ESV"">8:21</a>, <a href=""https://www.biblegateway.com/passage/?search=Josh.8.22&version=NET"">8:22</a>, <a href=""https://www.biblegateway.com/passage/?search=Josh.8.23&version=ESV"">8:23</a>, <a href=""https://www.biblegateway.com/passage/?search=Josh.8.24&version=ESV"">8:24</a>, <a href=""https://www.biblegateway.com/passage/?search=Josh.8.25&version=ESV"">8:25</a>, <a href=""https://www.biblegateway.com/passage/?search=Josh.8.26&version=ESV"">8:26</a>, <a href=""https://www.biblegateway.com/passage/?search=Josh.8.28&version=ESV"">8:28</a>, <a href=""https://www.biblegateway.com/passage/?search=Josh.8.29&version=ESV"">8:29</a>, <a href=""https://www.biblegateway.com/passage/?search=Josh.9.1&version=CSB"">9:1</a>, <a href=""https://www.biblegateway.com/passage/?search=Josh.9.3&version=ESV"">9:3</a>, <a href=""https://www.biblegateway.com/passage/?search=Josh.10.1&version=ESV"">10:1</a>, <a href=""https://www.biblegateway.com/passage/?search=Josh.10.2&version=ESV"">10:2</a>, <a href=""https://www.biblegateway.com/passage/?search=Josh.12.9&version=ESV"">12:9</a>";;35.270379;31.905169;0
Ai 1 / Khirbet Ibn Baraq;"Gen <a href=""https://www.biblegateway.com/passage/?search=Gen.12.8&version=ESV"">12:8</a>, <a href=""https://www.biblegateway.com/passage/?search=Gen.13.3&version=ESV"">13:3</a>, Josh <a href=""https://www.biblegateway.com/passage/?search=Josh.7.2&version=ESV"">7:2</a>, <a href=""https://www.biblegateway.com/passage/?search=Josh.7.3&version=ESV"">7:3</a>, <a href=""https://www.biblegateway.com/passage/?search=Josh.7.4&version=ESV"">7:4</a>, <a href=""https://www.biblegateway.com/passage/?search=Josh.7.5&version=ESV"">7:5</a>, <a href=""https://www.biblegateway.com/passage/?search=Josh.8.1&version=ESV"">8:1</a>, <a href=""https://www.biblegateway.com/passage/?search=Josh.8.2&version=ESV"">8:2</a>, <a href=""https://www.biblegateway.com/passage/?search=Josh.8.3&version=ESV"">8:3</a>, <a href=""https://www.biblegateway.com/passage/?search=Josh.8.5&version=NLT"">8:5</a>, <a href=""https://www.biblegateway.com/passage/?search=Josh.8.9&version=ESV"">8:9</a>, <a href=""https://www.biblegateway.com/passage/?search=Josh.8.10&version=ESV"">8:10</a>, <a href=""https://www.biblegateway.com/passage/?search=Josh.8.11&version=ESV"">8:11</a>, <a href=""https://www.biblegateway.com/passage/?search=Josh.8.12&version=ESV"">8:12</a>, <a href=""https://www.biblegateway.com/passage/?search=Josh.8.14&version=ESV"">8:14</a>, <a href=""https://www.biblegateway.com/passage/?search=Josh.8.16&version=NIV"">8:16</a>, <a href=""https://www.biblegateway.com/passage/?search=Josh.8.17&version=ESV"">8:17</a>, <a href=""https://www.biblegateway.com/passage/?search=Josh.8.18&version=ESV"">8:18</a>, <a href=""https://www.biblegateway.com/passage/?search=Josh.8.20&version=ESV"">8:20</a>, <a href=""https://www.biblegateway.com/passage/?search=Josh.8.21&version=ESV"">8:21</a>, <a href=""https://www.biblegateway.com/passage/?search=Josh.8.22&version=NET"">8:22</a>, <a href=""https://www.biblegateway.com/passage/?search=Josh.8.23&version=ESV"">8:23</a>, <a href=""https://www.biblegateway.com/passage/?search=Josh.8.24&version=ESV"">8:24</a>, <a href=""https://www.biblegateway.com/passage/?search=Josh.8.25&version=ESV"">8:25</a>, <a href=""https://www.biblegateway.com/passage/?search=Josh.8.26&version=ESV"">8:26</a>, <a href=""https://www.biblegateway.com/passage/?search=Josh.8.28&version=ESV"">8:28</a>, <a href=""https://www.biblegateway.com/passage/?search=Josh.8.29&version=ESV"">8:29</a>, <a href=""https://www.biblegateway.com/passage/?search=Josh.9.1&version=CSB"">9:1</a>, <a href=""https://www.biblegateway.com/passage/?search=Josh.9.3&version=ESV"">9:3</a>, <a href=""https://www.biblegateway.com/passage/?search=Josh.10.1&version=ESV"">10:1</a>, <a href=""https://www.biblegateway.com/passage/?search=Josh.10.2&version=ESV"">10:2</a>, <a href=""https://www.biblegateway.com/passage/?search=Josh.12.9&version=ESV"">12:9</a>";;35.2464;31.9125;0
Ai 2 (90% confidence);"Jer <a href=""https://www.biblegateway.com/passage/?search=Jer.49.3&version=ESV"">49:3</a>";;35.69284;31.64791;0
Ai 2 (80% confidence);"Jer <a href=""https://www.biblegateway.com/passage/?search=Jer.49.3&version=ESV"">49:3</a>";;35.96835;31.6775;0
Ai 2 (70% confidence);"Jer <a href=""https://www.biblegateway.com/passage/?search=Jer.49.3&version=ESV"">49:3</a>";;35.69284;31.6775;0
Ai 2 (60% confidence);"Jer <a href=""https://www.biblegateway.com/passage/?search=Jer.49.3&version=ESV"">49:3</a>";;35.96835;31.73667;0
Ai 2 (50% confidence);"Jer <a href=""https://www.biblegateway.com/passage/?search=Jer.49.3&version=ESV"">49:3</a>";;35.93391;31.73667;0
Ai 2 (40% confidence);"Jer <a href=""https://www.biblegateway.com/passage/?search=Jer.49.3&version=ESV"">49:3</a>";;35.69284;31.73667;0
Ai 2 (30% confidence);"Jer <a href=""https://www.biblegateway.com/passage/?search=Jer.49.3&version=ESV"">49:3</a>";;35.58952;31.73667;0
Ai 2 (20% confidence);"Jer <a href=""https://www.biblegateway.com/passage/?search=Jer.49.3&version=ESV"">49:3</a>";;35.45177;31.02662;0
Ai 2 (10% confidence);"Jer <a href=""https://www.biblegateway.com/passage/?search=Jer.49.3&version=ESV"">49:3</a>";;35.45177;31.02662;0
Ai 2 / in Moab 1;"Jer <a href=""https://www.biblegateway.com/passage/?search=Jer.49.3&version=ESV"">49:3</a>";;35.701389;31.180556;0
Ai 2 / Khirbet Ai;"Jer <a href=""https://www.biblegateway.com/passage/?search=Jer.49.3&version=ESV"">49:3</a>";;35.640041;31.13422;0
Ai 2 / Medeineh;"Jer <a href=""https://www.biblegateway.com/passage/?search=Jer.49.3&version=ESV"">49:3</a>";;35.77948;30.955999;0
Ai 2 / Et Tell;"Jer <a href=""https://www.biblegateway.com/passage/?search=Jer.49.3&version=ESV"">49:3</a>";another name for Allon-bacuth;35.261111;31.916944;0
Ai 2 / Khirbet el Maqatir;"Jer <a href=""https://www.biblegateway.com/passage/?search=Jer.49.3&version=ESV"">49:3</a>";another name for Allon-bacuth;35.2496;31.91476;0
Ai 2 / Khirbet Nisieh;"Jer <a href=""https://www.biblegateway.com/passage/?search=Jer.49.3&version=ESV"">49:3</a>";another name for Allon-bacuth;35.228619;31.897515;0
Ai 2 / Khirbet Ibn Baraq;"Jer <a href=""https://www.biblegateway.com/passage/?search=Jer.49.3&version=ESV"">49:3</a>";another name for Allon-bacuth;35.2464;31.9125;0
Ai 2 / Khirbet Haiyan;"Jer <a href=""https://www.biblegateway.com/passage/?search=Jer.49.3&version=ESV"">49:3</a>";another name for Allon-bacuth;35.270379;31.905169;0
Ai 3 / Et Tell;"Ezra <a href=""https://www.biblegateway.com/passage/?search=Ezra.2.28&version=ESV"">2:28</a>, Neh <a href=""https://www.biblegateway.com/passage/?search=Neh.7.32&version=ESV"">7:32</a>";another name for Allon-bacuth;35.261111;31.916944;0
Ai 3 / Khirbet el Maqatir;"Ezra <a href=""https://www.biblegateway.com/passage/?search=Ezra.2.28&version=ESV"">2:28</a>, Neh <a href=""https://www.biblegateway.com/passage/?search=Neh.7.32&version=ESV"">7:32</a>";another name for Allon-bacuth;35.2496;31.91476;0
Ai 3 / Khirbet Nisieh;"Ezra <a href=""https://www.biblegateway.com/passage/?search=Ezra.2.28&version=ESV"">2:28</a>, Neh <a href=""https://www.biblegateway.com/passage/?search=Neh.7.32&version=ESV"">7:32</a>";another name for Allon-bacuth;35.228619;31.897515;0
Ai 3 / Khirbet Ibn Baraq;"Ezra <a href=""https://www.biblegateway.com/passage/?search=Ezra.2.28&version=ESV"">2:28</a>, Neh <a href=""https://www.biblegateway.com/passage/?search=Neh.7.32&version=ESV"">7:32</a>";another name for Allon-bacuth;35.2464;31.9125;0
Ai 3 / Khirbet Haiyan;"Ezra <a href=""https://www.biblegateway.com/passage/?search=Ezra.2.28&version=ESV"">2:28</a>, Neh <a href=""https://www.biblegateway.com/passage/?search=Neh.7.32&version=ESV"">7:32</a>";another name for Allon-bacuth;35.270379;31.905169;0
Ai 3 / Khirbet Haiyan;"Ezra <a href=""https://www.biblegateway.com/passage/?search=Ezra.2.28&version=ESV"">2:28</a>, Neh <a href=""https://www.biblegateway.com/passage/?search=Neh.7.32&version=ESV"">7:32</a>";;35.270379;31.905169;0
Aiath / Et Tell;"Isa <a href=""https://www.biblegateway.com/passage/?search=Isa.10.28&version=ESV"">10:28</a>";another name for Almon-diblathaim;35.261111;31.916944;0
Aiath / Khirbet el Maqatir;"Isa <a href=""https://www.biblegateway.com/passage/?search=Isa.10.28&version=ESV"">10:28</a>";another name for Almon-diblathaim;35.2496;31.91476;0
Aiath / Khirbet Nisieh;"Isa <a href=""https://www.biblegateway.com/passage/?search=Isa.10.28&version=ESV"">10:28</a>";another name for Almon-diblathaim;35.228619;31.897515;0
Aiath / Khirbet Ibn Baraq;"Isa <a href=""https://www.biblegateway.com/passage/?search=Isa.10.28&version=ESV"">10:28</a>";another name for Ama;35.2464;31.9125;0
Aiath / Khirbet Haiyan;"Isa <a href=""https://www.biblegateway.com/passage/?search=Isa.10.28&version=ESV"">10:28</a>";another name for Ama;35.270379;31.905169;0
Aiath / Khirbet Haiyan;"Isa <a href=""https://www.biblegateway.com/passage/?search=Isa.10.28&version=ESV"">10:28</a>";;35.270379;31.905169;0
Aija / Et Tell;"Neh <a href=""https://www.biblegateway.com/passage/?search=Neh.11.31&version=ESV"">11:31</a>";another name for Ama;35.261111;31.916944;0
Aija / Khirbet el Maqatir;"Neh <a href=""https://www.biblegateway.com/passage/?search=Neh.11.31&version=ESV"">11:31</a>";another name for Ama;35.2496;31.91476;0
Aija / Khirbet Nisieh;"Neh <a href=""https://www.biblegateway.com/passage/?search=Neh.11.31&version=ESV"">11:31</a>";another name for Ama;35.228619;31.897515;0
Aija / Khirbet Ibn Baraq;"Neh <a href=""https://www.biblegateway.com/passage/?search=Neh.11.31&version=ESV"">11:31</a>";another name for Ama;35.2464;31.9125;0
Aija / Khirbet Haiyan;"Neh <a href=""https://www.biblegateway.com/passage/?search=Neh.11.31&version=ESV"">11:31</a>";another name for Ama;35.270379;31.905169;0
Aija / Et Tell;"Neh <a href=""https://www.biblegateway.com/passage/?search=Neh.11.31&version=ESV"">11:31</a>";another name for Aphek 1;35.261111;31.916944;0
Aija / Khirbet el Maqatir;"Neh <a href=""https://www.biblegateway.com/passage/?search=Neh.11.31&version=ESV"">11:31</a>";another name for Aphek 1;35.2496;31.91476;0
Aija / Khirbet Nisieh;"Neh <a href=""https://www.biblegateway.com/passage/?search=Neh.11.31&version=ESV"">11:31</a>";another name for Aphek 2;35.228619;31.897515;0
Aija / Khirbet Ibn Baraq;"Neh <a href=""https://www.biblegateway.com/passage/?search=Neh.11.31&version=ESV"">11:31</a>";another name for Aphek 2;35.2464;31.9125;0
Aija / Khirbet Haiyan;"Neh <a href=""https://www.biblegateway.com/passage/?search=Neh.11.31&version=ESV"">11:31</a>";another name for Aphek 4;35.270379;31.905169;0
Aijalon 1 / Yalo;"Josh <a href=""https://www.biblegateway.com/passage/?search=Josh.19.42&version=ESV"">19:42</a>, <a href=""https://www.biblegateway.com/passage/?search=Josh.21.24&version=ESV"">21:24</a>, Judg <a href=""https://www.biblegateway.com/passage/?search=Judg.1.35&version=ESV"">1:35</a>, 1Sam <a href=""https://www.biblegateway.com/passage/?search=1Sam.14.31&version=ESV"">14:31</a>, 1Chr <a href=""https://www.biblegateway.com/passage/?search=1Chr.6.69&version=ESV"">6:69</a>, <a href=""https://www.biblegateway.com/passage/?search=1Chr.8.13&version=ESV"">8:13</a>, 2Chr <a href=""https://www.biblegateway.com/passage/?search=2Chr.11.10&version=ESV"">11:10</a>, <a href=""https://www.biblegateway.com/passage/?search=2Chr.28.18&version=ESV"">28:18</a>";;35.023611;31.841111;0
Aijalon 1 / Tell el Kokah;"Josh <a href=""https://www.biblegateway.com/passage/?search=Josh.19.42&version=ESV"">19:42</a>, <a href=""https://www.biblegateway.com/passage/?search=Josh.21.24&version=ESV"">21:24</a>, Judg <a href=""https://www.biblegateway.com/passage/?search=Judg.1.35&version=ESV"">1:35</a>, 1Sam <a href=""https://www.biblegateway.com/passage/?search=1Sam.14.31&version=ESV"">14:31</a>, 1Chr <a href=""https://www.biblegateway.com/passage/?search=1Chr.6.69&version=ESV"">6:69</a>, <a href=""https://www.biblegateway.com/passage/?search=1Chr.8.13&version=ESV"">8:13</a>, 2Chr <a href=""https://www.biblegateway.com/passage/?search=2Chr.11.10&version=ESV"">11:10</a>, <a href=""https://www.biblegateway.com/passage/?search=2Chr.28.18&version=ESV"">28:18</a>";;35.0263;31.8401;0
Aijalon 1 / Khirbet Haiyan;"Josh <a href=""https://www.biblegateway.com/passage/?search=Josh.19.42&version=ESV"">19:42</a>, <a href=""https://www.biblegateway.com/passage/?search=Josh.21.24&version=ESV"">21:24</a>, Judg <a href=""https://www.biblegateway.com/passage/?search=Judg.1.35&version=ESV"">1:35</a>, 1Sam <a href=""https://www.biblegateway.com/passage/?search=1Sam.14.31&version=ESV"">14:31</a>, 1Chr <a href=""https://www.biblegateway.com/passage/?search=1Chr.6.69&version=ESV"">6:69</a>, <a href=""https://www.biblegateway.com/passage/?search=1Chr.8.13&version=ESV"">8:13</a>, 2Chr <a href=""https://www.biblegateway.com/passage/?search=2Chr.11.10&version=ESV"">11:10</a>, <a href=""https://www.biblegateway.com/passage/?search=2Chr.28.18&version=ESV"">28:18</a>";;35.270379;31.905169;0
Aijalon 2 / Khirbet el Lon;"Judg <a href=""https://www.biblegateway.com/passage/?search=Judg.12.12&version=ESV"">12:12</a>";;35.2733;32.7689;0
Aijalon 2 / Tel el Butmeh;"Judg <a href=""https://www.biblegateway.com/passage/?search=Judg.12.12&version=ESV"">12:12</a>";;35.309023;32.814086;0
Aijalon 2 / within 10 km of Rumana;"Judg <a href=""https://www.biblegateway.com/passage/?search=Judg.12.12&version=ESV"">12:12</a>";;35.31056;32.87799;0
Aijalon 2 / within 10 km of Rumana;"Judg <a href=""https://www.biblegateway.com/passage/?search=Judg.12.12&version=ESV"">12:12</a>";;35.310556;32.788056;0
Aijalon 2 / within 10 km of Horbat Rumah;"Judg <a href=""https://www.biblegateway.com/passage/?search=Judg.12.12&version=ESV"">12:12</a>";;35.29321;32.87885;0
Aijalon 2 / within 10 km of Horbat Rumah;"Judg <a href=""https://www.biblegateway.com/passage/?search=Judg.12.12&version=ESV"">12:12</a>";;35.29321;32.78892;0
Aijalon 2 / within 10 km of Tel Hanaton;"Judg <a href=""https://www.biblegateway.com/passage/?search=Judg.12.12&version=ESV"">12:12</a>";;35.25694;32.87549;0
Aijalon 2 / within 10 km of Tel Hanaton;"Judg <a href=""https://www.biblegateway.com/passage/?search=Judg.12.12&version=ESV"">12:12</a>";;35.256944;32.785556;0
Aijalon 2 / within 10 km of Qarn Hattin;"Judg <a href=""https://www.biblegateway.com/passage/?search=Judg.12.12&version=ESV"">12:12</a>";;35.45972;32.88965;0
Aijalon 2 / within 10 km of Qarn Hattin;"Judg <a href=""https://www.biblegateway.com/passage/?search=Judg.12.12&version=ESV"">12:12</a>";;35.459722;32.799722;0
Ain 1 / Khirbet Ayun;"Num <a href=""https://www.biblegateway.com/passage/?search=Num.34.11&version=ESV"">34:11</a>";;35.66791;32.71865;0
Ain 1 / Khirbet Dufnah;"Num <a href=""https://www.biblegateway.com/passage/?search=Num.34.11&version=ESV"">34:11</a>";;35.636569;33.238681;0
Ain 1 / Ain ez Zarqa;"Num <a href=""https://www.biblegateway.com/passage/?search=Num.34.11&version=ESV"">34:11</a>";;36.373056;34.352222;0
Ain 1 / Banias;"Num <a href=""https://www.biblegateway.com/passage/?search=Num.34.11&version=ESV"">34:11</a>";;35.693333;33.246111;0
Ain 1 / Tel Dan;"Num <a href=""https://www.biblegateway.com/passage/?search=Num.34.11&version=ESV"">34:11</a>";another name for Elonbeth-hanan;35.652;33.249;0
Ain 1 / Tell Dibbine;"Num <a href=""https://www.biblegateway.com/passage/?search=Num.34.11&version=ESV"">34:11</a>";another name for Kadesh-barnea;35.59;33.345278;0
Ain 1 / Marjaayoun;"Num <a href=""https://www.biblegateway.com/passage/?search=Num.34.11&version=ESV"">34:11</a>";another name for Karnaim;35.5921;33.3611;0
Ain 2 / Khirbet Umm er Rammamin;"Josh <a href=""https://www.biblegateway.com/passage/?search=Josh.15.32&version=ESV"">15:32</a>, <a href=""https://www.biblegateway.com/passage/?search=Josh.19.7&version=ESV"">19:7</a>, 1Chr <a href=""https://www.biblegateway.com/passage/?search=1Chr.4.32&version=ESV"">4:32</a>";another name for Gederah 1;34.86489;31.37124;0
Ain 2 / Tel Halif;"Josh <a href=""https://www.biblegateway.com/passage/?search=Josh.15.32&version=ESV"">15:32</a>, <a href=""https://www.biblegateway.com/passage/?search=Josh.19.7&version=ESV"">19:7</a>, 1Chr <a href=""https://www.biblegateway.com/passage/?search=1Chr.4.32&version=ESV"">4:32</a>";another name for Gederah 1;34.86564;31.38333;0
Ain 2 / Khirbet Asan;"Josh <a href=""https://www.biblegateway.com/passage/?search=Josh.15.32&version=ESV"">15:32</a>, <a href=""https://www.biblegateway.com/passage/?search=Josh.19.7&version=ESV"">19:7</a>, 1Chr <a href=""https://www.biblegateway.com/passage/?search=1Chr.4.32&version=ESV"">4:32</a>";another name for Baalah 1;34.797404;31.281372;0
Ain 2 / Tell Beit Mirsim;"Josh <a href=""https://www.biblegateway.com/passage/?search=Josh.15.32&version=ESV"">15:32</a>, <a href=""https://www.biblegateway.com/passage/?search=Josh.19.7&version=ESV"">19:7</a>, 1Chr <a href=""https://www.biblegateway.com/passage/?search=1Chr.4.32&version=ESV"">4:32</a>";another name for Baalah 1;34.9098;31.4558;0
Ain 2 / Tel Goded;"Josh <a href=""https://www.biblegateway.com/passage/?search=Josh.15.32&version=ESV"">15:32</a>, <a href=""https://www.biblegateway.com/passage/?search=Josh.19.7&version=ESV"">19:7</a>, 1Chr <a href=""https://www.biblegateway.com/passage/?search=1Chr.4.32&version=ESV"">4:32</a>";another name for Baalah 1;34.916611;31.633361;0
Ain 2 / Khirbet Muleh;"Josh <a href=""https://www.biblegateway.com/passage/?search=Josh.15.32&version=ESV"">15:32</a>, <a href=""https://www.biblegateway.com/passage/?search=Josh.19.7&version=ESV"">19:7</a>, 1Chr <a href=""https://www.biblegateway.com/passage/?search=1Chr.4.32&version=ESV"">4:32</a>";another name for Baalah 1;34.646389;31.29;0
Ain 2 / Khirbet Asan;"Josh <a href=""https://www.biblegateway.com/passage/?search=Josh.15.32&version=ESV"">15:32</a>, <a href=""https://www.biblegateway.com/passage/?search=Josh.19.7&version=ESV"">19:7</a>, 1Chr <a href=""https://www.biblegateway.com/passage/?search=1Chr.4.32&version=ESV"">4:32</a>";;34.797404;31.281372;0
Ain 2 / Horbat Anim;"Josh <a href=""https://www.biblegateway.com/passage/?search=Josh.15.32&version=ESV"">15:32</a>, <a href=""https://www.biblegateway.com/passage/?search=Josh.19.7&version=ESV"">19:7</a>, 1Chr <a href=""https://www.biblegateway.com/passage/?search=1Chr.4.32&version=ESV"">4:32</a>";;35.063521;31.353601;0
Ain 3 / Khirbet Asan;"Josh <a href=""https://www.biblegateway.com/passage/?search=Josh.21.16&version=ESV"">21:16</a>";another name for Baalah 1;34.797404;31.281372;0
Ain 3 / Tell Beit Mirsim;"Josh <a href=""https://www.biblegateway.com/passage/?search=Josh.21.16&version=ESV"">21:16</a>";another name for Baalah 1;34.9098;31.4558;0
Ain 3 / Tel Goded;"Josh <a href=""https://www.biblegateway.com/passage/?search=Josh.21.16&version=ESV"">21:16</a>";another name for Baalah 1;34.916611;31.633361;0
Ain 3 / Khirbet Muleh;"Josh <a href=""https://www.biblegateway.com/passage/?search=Josh.21.16&version=ESV"">21:16</a>";another name for Baalah 1;34.646389;31.29;0
Ain 3 / Khirbet Umm er Rammamin;"Josh <a href=""https://www.biblegateway.com/passage/?search=Josh.21.16&version=ESV"">21:16</a>";another name for Arimathea;34.86489;31.37124;0
Ain 3 / Tel Halif;"Josh <a href=""https://www.biblegateway.com/passage/?search=Josh.21.16&version=ESV"">21:16</a>";another name for Aroer 1;34.86564;31.38333;0
Ain 3 / Khirbet Asan;"Josh <a href=""https://www.biblegateway.com/passage/?search=Josh.21.16&version=ESV"">21:16</a>";another name for Aroer 1;34.797404;31.281372;0
Ain 3 / Horbat Anim;"Josh <a href=""https://www.biblegateway.com/passage/?search=Josh.21.16&version=ESV"">21:16</a>";another name for Aroer 1;35.063521;31.353601;0
Ain 3 / Tell Beit Mirsim;"Josh <a href=""https://www.biblegateway.com/passage/?search=Josh.21.16&version=ESV"">21:16</a>";another name for Aroer 2;34.9098;31.4558;0
Ain 3 / Tel Goded;"Josh <a href=""https://www.biblegateway.com/passage/?search=Josh.21.16&version=ESV"">21:16</a>";another name for Aroer 2;34.916611;31.633361;0
Ain 3 / Khirbet Muleh;"Josh <a href=""https://www.biblegateway.com/passage/?search=Josh.21.16&version=ESV"">21:16</a>";another name for Aroer 2;34.646389;31.29;0
Akeldama;"Matt <a href=""https://www.biblegateway.com/passage/?search=Matt.27.8&version=ESV"">27:8</a>, Acts <a href=""https://www.biblegateway.com/passage/?search=Acts.1.19&version=ESV"">1:19</a>";;35.23288;31.76841;0
Akrabbim / Ma?ale Akrabbim;"Num <a href=""https://www.biblegateway.com/passage/?search=Num.34.4&version=ESV"">34:4</a>, Josh <a href=""https://www.biblegateway.com/passage/?search=Josh.15.3&version=ESV"">15:3</a>, Judg <a href=""https://www.biblegateway.com/passage/?search=Judg.1.36&version=ESV"">1:36</a>";;35.129549;30.902354;0
Akrabbim / Ma?ale Akrabbim;"Num <a href=""https://www.biblegateway.com/passage/?search=Num.34.4&version=ESV"">34:4</a>, Josh <a href=""https://www.biblegateway.com/passage/?search=Josh.15.3&version=ESV"">15:3</a>, Judg <a href=""https://www.biblegateway.com/passage/?search=Judg.1.36&version=ESV"">1:36</a>";;35.131259;30.906602;0
Akrabbim / Jebel Umm al Aqarib;"Num <a href=""https://www.biblegateway.com/passage/?search=Num.34.4&version=ESV"">34:4</a>, Josh <a href=""https://www.biblegateway.com/passage/?search=Josh.15.3&version=ESV"">15:3</a>, Judg <a href=""https://www.biblegateway.com/passage/?search=Judg.1.36&version=ESV"">1:36</a>";;35.576667;31.194167;0
Alemeth / Khirbet Almit;"1Chr <a href=""https://www.biblegateway.com/passage/?search=1Chr.6.60&version=ESV"">6:60</a>";;35.273498;31.824903;0
Alexandria;"Acts <a href=""https://www.biblegateway.com/passage/?search=Acts.6.9&version=NIV"">6:9</a>, <a href=""https://www.biblegateway.com/passage/?search=Acts.18.24&version=ESV"">18:24</a>, <a href=""https://www.biblegateway.com/passage/?search=Acts.27.6&version=ESV"">27:6</a>, <a href=""https://www.biblegateway.com/passage/?search=Acts.28.11&version=ESV"">28:11</a>";;29.8965;31.1825;0
Allammelech / Tel Alil;"Josh <a href=""https://www.biblegateway.com/passage/?search=Josh.19.26&version=ESV"">19:26</a>";;35.155668;32.771772;0
Allammelech / Tel Nahal;"Josh <a href=""https://www.biblegateway.com/passage/?search=Josh.19.26&version=ESV"">19:26</a>";;35.07006;32.7988;0
Allon / in Hanot Taggarim;"Josh <a href=""https://www.biblegateway.com/passage/?search=Josh.19.33&version=KJV"">19:33</a>";within 30 km of Beth-pelet;35.41064;32.72113;0
Allon / in Lejjun;"Josh <a href=""https://www.biblegateway.com/passage/?search=Josh.19.33&version=KJV"">19:33</a>";within 30 km of Beth-pelet;35.177778;32.574722;0
Allon / in Khirbet Bessum;"Josh <a href=""https://www.biblegateway.com/passage/?search=Josh.19.33&version=KJV"">19:33</a>";within 30 km of Beth-pelet;35.481228;32.734475;0
Allon / in Shajarat el Kalb;"Josh <a href=""https://www.biblegateway.com/passage/?search=Josh.19.33&version=KJV"">19:33</a>";within 30 km of Eshtemoa;35.5311;32.6848;0
Allon-bacuth / within 1 km of Beitin;"Gen <a href=""https://www.biblegateway.com/passage/?search=Gen.35.8&version=ESV"">35:8</a>";;35.24139;31.93177;0
Allon-bacuth / within 1 km of Beitin;"Gen <a href=""https://www.biblegateway.com/passage/?search=Gen.35.8&version=ESV"">35:8</a>";;35.241389;31.922778;0
Allon-bacuth / within 1 km of Al Bira;"Gen <a href=""https://www.biblegateway.com/passage/?search=Gen.35.8&version=ESV"">35:8</a>";;35.21496;31.91414;0
Allon-bacuth / within 1 km of Al Bira;"Gen <a href=""https://www.biblegateway.com/passage/?search=Gen.35.8&version=ESV"">35:8</a>";;35.214958;31.905142;0
Allon-bacuth / within 1 km of Burj Beitin;"Gen <a href=""https://www.biblegateway.com/passage/?search=Gen.35.8&version=ESV"">35:8</a>";;35.24548;31.93086;0
Allon-bacuth / within 1 km of Burj Beitin;"Gen <a href=""https://www.biblegateway.com/passage/?search=Gen.35.8&version=ESV"">35:8</a>";;35.245478;31.921866;0
Almon / Khirbet Almit;"Josh <a href=""https://www.biblegateway.com/passage/?search=Josh.21.18&version=ESV"">21:18</a>";another name for Aroer 2;35.273498;31.824903;0
Almon / Khirbet Almit;"Josh <a href=""https://www.biblegateway.com/passage/?search=Josh.21.18&version=ESV"">21:18</a>";;35.273498;31.824903;0
Almon-diblathaim / Duleilat esh Sharqiyeh;"Num <a href=""https://www.biblegateway.com/passage/?search=Num.33.46&version=ESV"">33:46</a>, <a href=""https://www.biblegateway.com/passage/?search=Num.33.47&version=ESV"">33:47</a>";another name for Beth-shemesh 1;35.826578;31.638727;0
Almon-diblathaim / Duleilat el Gharbiyeh;"Num <a href=""https://www.biblegateway.com/passage/?search=Num.33.46&version=ESV"">33:46</a>, <a href=""https://www.biblegateway.com/passage/?search=Num.33.47&version=ESV"">33:47</a>";another name for Beth-shemesh 2;35.793646;31.619221;0
Almon-diblathaim / Khirbet Libb;"Num <a href=""https://www.biblegateway.com/passage/?search=Num.33.46&version=ESV"">33:46</a>, <a href=""https://www.biblegateway.com/passage/?search=Num.33.47&version=ESV"">33:47</a>";another name for Beth-shemesh 2;35.761261;31.60634;0
Almon-diblathaim / Khirbet et Teim;"Num <a href=""https://www.biblegateway.com/passage/?search=Num.33.46&version=ESV"">33:46</a>, <a href=""https://www.biblegateway.com/passage/?search=Num.33.47&version=ESV"">33:47</a>";another name for Beth-shemesh 2;35.774441;31.69557;0
Almon-diblathaim / Duleilat esh Sharqiyeh;"Num <a href=""https://www.biblegateway.com/passage/?search=Num.33.46&version=ESV"">33:46</a>, <a href=""https://www.biblegateway.com/passage/?search=Num.33.47&version=ESV"">33:47</a>";;35.826578;31.638727;0
Almon-diblathaim / Duleilat el Gharbiyeh;"Num <a href=""https://www.biblegateway.com/passage/?search=Num.33.46&version=ESV"">33:46</a>, <a href=""https://www.biblegateway.com/passage/?search=Num.33.47&version=ESV"">33:47</a>";;35.793646;31.619221;0
Almon-diblathaim / Khirbet el Qureiye;"Num <a href=""https://www.biblegateway.com/passage/?search=Num.33.46&version=ESV"">33:46</a>, <a href=""https://www.biblegateway.com/passage/?search=Num.33.47&version=ESV"">33:47</a>";;35.694296;31.708935;0
Alush / along Wadi el Esh;"Num <a href=""https://www.biblegateway.com/passage/?search=Num.33.13&version=ESV"">33:13</a>, <a href=""https://www.biblegateway.com/passage/?search=Num.33.14&version=ESV"">33:14</a>";;33.765422;28.759852;0
Alush / along Wadi el Esh;"Num <a href=""https://www.biblegateway.com/passage/?search=Num.33.13&version=ESV"">33:13</a>, <a href=""https://www.biblegateway.com/passage/?search=Num.33.14&version=ESV"">33:14</a>";;33.767493;28.770311;0
Ama / along the Karkheh River;"Josh <a href=""https://www.biblegateway.com/passage/?search=Josh.19.26&version=ESV"">19:26</a>";another name for Aiath;47.198778;33.292032;0
Ama / along the Karkheh River;"Josh <a href=""https://www.biblegateway.com/passage/?search=Josh.19.26&version=ESV"">19:26</a>";another name for Aiath;47.869402;31.782302;0
Ama / along the Karun River;"Josh <a href=""https://www.biblegateway.com/passage/?search=Josh.19.26&version=ESV"">19:26</a>";another name for Aiath;50.469074;31.635166;0
Ama / along the Karun River;"Josh <a href=""https://www.biblegateway.com/passage/?search=Josh.19.26&version=ESV"">19:26</a>";another name for Aiath;48.1654;30.4275;0
Amad / within 10 km of Mount Carmel;"Josh <a href=""https://www.biblegateway.com/passage/?search=Josh.19.26&version=ESV"">19:26</a>";;35.02333;32.76243;0
Amad / within 10 km of Mount Carmel;"Josh <a href=""https://www.biblegateway.com/passage/?search=Josh.19.26&version=ESV"">19:26</a>";;35.023333;32.6725;0
Amad / Umm al Amad;"Josh <a href=""https://www.biblegateway.com/passage/?search=Josh.19.26&version=ESV"">19:26</a>";;35.171797;32.7295;0
Amalek (60% confidence);"Exod <a href=""https://www.biblegateway.com/passage/?search=Exod.17.8&version=ESV"">17:8</a>, <a href=""https://www.biblegateway.com/passage/?search=Exod.17.9&version=ESV"">17:9</a>, <a href=""https://www.biblegateway.com/passage/?search=Exod.17.10&version=ESV"">17:10</a>, <a href=""https://www.biblegateway.com/passage/?search=Exod.17.11&version=ESV"">17:11</a>, <a href=""https://www.biblegateway.com/passage/?search=Exod.17.13&version=ESV"">17:13</a>, <a href=""https://www.biblegateway.com/passage/?search=Exod.17.14&version=ESV"">17:14</a>, <a href=""https://www.biblegateway.com/passage/?search=Exod.17.16&version=ESV"">17:16</a>, Num <a href=""https://www.biblegateway.com/passage/?search=Num.13.29&version=NASB"">13:29</a>, <a href=""https://www.biblegateway.com/passage/?search=Num.24.20&version=ESV"">24:20</a>, <a href=""https://www.biblegateway.com/passage/?search=Num.24.24&version=NKJV"">24:24</a>, Deut <a href=""https://www.biblegateway.com/passage/?search=Deut.25.17&version=ESV"">25:17</a>, <a href=""https://www.biblegateway.com/passage/?search=Deut.25.19&version=ESV"">25:19</a>, Judg <a href=""https://www.biblegateway.com/passage/?search=Judg.3.13&version=NASB"">3:13</a>, <a href=""https://www.biblegateway.com/passage/?search=Judg.5.14&version=NIV"">5:14</a>, <a href=""https://www.biblegateway.com/passage/?search=Judg.6.3&version=NLT"">6:3</a>, <a href=""https://www.biblegateway.com/passage/?search=Judg.6.33&version=NLT"">6:33</a>, <a href=""https://www.biblegateway.com/passage/?search=Judg.7.12&version=NLT"">7:12</a>, <a href=""https://www.biblegateway.com/passage/?search=Judg.10.12&version=NET"">10:12</a>, 1Sam <a href=""https://www.biblegateway.com/passage/?search=1Sam.15.2&version=ESV"">15:2</a>, <a href=""https://www.biblegateway.com/passage/?search=1Sam.15.3&version=ESV"">15:3</a>, <a href=""https://www.biblegateway.com/passage/?search=1Sam.15.5&version=ESV"">15:5</a>, <a href=""https://www.biblegateway.com/passage/?search=1Sam.15.8&version=CSB"">15:8</a>, <a href=""https://www.biblegateway.com/passage/?search=1Sam.15.20&version=ESV"">15:20</a>, <a href=""https://www.biblegateway.com/passage/?search=1Sam.15.32&version=CSB"">15:32</a>, <a href=""https://www.biblegateway.com/passage/?search=1Sam.28.18&version=ESV"">28:18</a>, 2Sam <a href=""https://www.biblegateway.com/passage/?search=2Sam.8.12&version=ESV"">8:12</a>, 1Chr <a href=""https://www.biblegateway.com/passage/?search=1Chr.18.11&version=ESV"">18:11</a>, Ps <a href=""https://www.biblegateway.com/passage/?search=Ps.83.7&version=ESV"">83:7</a>";;34.64888;31.03223;0
Amalek (50% confidence);"Exod <a href=""https://www.biblegateway.com/passage/?search=Exod.17.8&version=ESV"">17:8</a>, <a href=""https://www.biblegateway.com/passage/?search=Exod.17.9&version=ESV"">17:9</a>, <a href=""https://www.biblegateway.com/passage/?search=Exod.17.10&version=ESV"">17:10</a>, <a href=""https://www.biblegateway.com/passage/?search=Exod.17.11&version=ESV"">17:11</a>, <a href=""https://www.biblegateway.com/passage/?search=Exod.17.13&version=ESV"">17:13</a>, <a href=""https://www.biblegateway.com/passage/?search=Exod.17.14&version=ESV"">17:14</a>, <a href=""https://www.biblegateway.com/passage/?search=Exod.17.16&version=ESV"">17:16</a>, Num <a href=""https://www.biblegateway.com/passage/?search=Num.13.29&version=NASB"">13:29</a>, <a href=""https://www.biblegateway.com/passage/?search=Num.24.20&version=ESV"">24:20</a>, <a href=""https://www.biblegateway.com/passage/?search=Num.24.24&version=NKJV"">24:24</a>, Deut <a href=""https://www.biblegateway.com/passage/?search=Deut.25.17&version=ESV"">25:17</a>, <a href=""https://www.biblegateway.com/passage/?search=Deut.25.19&version=ESV"">25:19</a>, Judg <a href=""https://www.biblegateway.com/passage/?search=Judg.3.13&version=NASB"">3:13</a>, <a href=""https://www.biblegateway.com/passage/?search=Judg.5.14&version=NIV"">5:14</a>, <a href=""https://www.biblegateway.com/passage/?search=Judg.6.3&version=NLT"">6:3</a>, <a href=""https://www.biblegateway.com/passage/?search=Judg.6.33&version=NLT"">6:33</a>, <a href=""https://www.biblegateway.com/passage/?search=Judg.7.12&version=NLT"">7:12</a>, <a href=""https://www.biblegateway.com/passage/?search=Judg.10.12&version=NET"">10:12</a>, 1Sam <a href=""https://www.biblegateway.com/passage/?search=1Sam.15.2&version=ESV"">15:2</a>, <a href=""https://www.biblegateway.com/passage/?search=1Sam.15.3&version=ESV"">15:3</a>, <a href=""https://www.biblegateway.com/passage/?search=1Sam.15.5&version=ESV"">15:5</a>, <a href=""https://www.biblegateway.com/passage/?search=1Sam.15.8&version=CSB"">15:8</a>, <a href=""https://www.biblegateway.com/passage/?search=1Sam.15.20&version=ESV"">15:20</a>, <a href=""https://www.biblegateway.com/passage/?search=1Sam.15.32&version=CSB"">15:32</a>, <a href=""https://www.biblegateway.com/passage/?search=1Sam.28.18&version=ESV"">28:18</a>, 2Sam <a href=""https://www.biblegateway.com/passage/?search=2Sam.8.12&version=ESV"">8:12</a>, 1Chr <a href=""https://www.biblegateway.com/passage/?search=1Chr.18.11&version=ESV"">18:11</a>, Ps <a href=""https://www.biblegateway.com/passage/?search=Ps.83.7&version=ESV"">83:7</a>";;34.5693;31.10074;0
Amalek (40% confidence);"Exod <a href=""https://www.biblegateway.com/passage/?search=Exod.17.8&version=ESV"">17:8</a>, <a href=""https://www.biblegateway.com/passage/?search=Exod.17.9&version=ESV"">17:9</a>, <a href=""https://www.biblegateway.com/passage/?search=Exod.17.10&version=ESV"">17:10</a>, <a href=""https://www.biblegateway.com/passage/?search=Exod.17.11&version=ESV"">17:11</a>, <a href=""https://www.biblegateway.com/passage/?search=Exod.17.13&version=ESV"">17:13</a>, <a href=""https://www.biblegateway.com/passage/?search=Exod.17.14&version=ESV"">17:14</a>, <a href=""https://www.biblegateway.com/passage/?search=Exod.17.16&version=ESV"">17:16</a>, Num <a href=""https://www.biblegateway.com/passage/?search=Num.13.29&version=NASB"">13:29</a>, <a href=""https://www.biblegateway.com/passage/?search=Num.24.20&version=ESV"">24:20</a>, <a href=""https://www.biblegateway.com/passage/?search=Num.24.24&version=NKJV"">24:24</a>, Deut <a href=""https://www.biblegateway.com/passage/?search=Deut.25.17&version=ESV"">25:17</a>, <a href=""https://www.biblegateway.com/passage/?search=Deut.25.19&version=ESV"">25:19</a>, Judg <a href=""https://www.biblegateway.com/passage/?search=Judg.3.13&version=NASB"">3:13</a>, <a href=""https://www.biblegateway.com/passage/?search=Judg.5.14&version=NIV"">5:14</a>, <a href=""https://www.biblegateway.com/passage/?search=Judg.6.3&version=NLT"">6:3</a>, <a href=""https://www.biblegateway.com/passage/?search=Judg.6.33&version=NLT"">6:33</a>, <a href=""https://www.biblegateway.com/passage/?search=Judg.7.12&version=NLT"">7:12</a>, <a href=""https://www.biblegateway.com/passage/?search=Judg.10.12&version=NET"">10:12</a>, 1Sam <a href=""https://www.biblegateway.com/passage/?search=1Sam.15.2&version=ESV"">15:2</a>, <a href=""https://www.biblegateway.com/passage/?search=1Sam.15.3&version=ESV"">15:3</a>, <a href=""https://www.biblegateway.com/passage/?search=1Sam.15.5&version=ESV"">15:5</a>, <a href=""https://www.biblegateway.com/passage/?search=1Sam.15.8&version=CSB"">15:8</a>, <a href=""https://www.biblegateway.com/passage/?search=1Sam.15.20&version=ESV"">15:20</a>, <a href=""https://www.biblegateway.com/passage/?search=1Sam.15.32&version=CSB"">15:32</a>, <a href=""https://www.biblegateway.com/passage/?search=1Sam.28.18&version=ESV"">28:18</a>, 2Sam <a href=""https://www.biblegateway.com/passage/?search=2Sam.8.12&version=ESV"">8:12</a>, 1Chr <a href=""https://www.biblegateway.com/passage/?search=1Chr.18.11&version=ESV"">18:11</a>, Ps <a href=""https://www.biblegateway.com/passage/?search=Ps.83.7&version=ESV"">83:7</a>";;34.5693;31.10074;0
Amalek (30% confidence);"Exod <a href=""https://www.biblegateway.com/passage/?search=Exod.17.8&version=ESV"">17:8</a>, <a href=""https://www.biblegateway.com/passage/?search=Exod.17.9&version=ESV"">17:9</a>, <a href=""https://www.biblegateway.com/passage/?search=Exod.17.10&version=ESV"">17:10</a>, <a href=""https://www.biblegateway.com/passage/?search=Exod.17.11&version=ESV"">17:11</a>, <a href=""https://www.biblegateway.com/passage/?search=Exod.17.13&version=ESV"">17:13</a>, <a href=""https://www.biblegateway.com/passage/?search=Exod.17.14&version=ESV"">17:14</a>, <a href=""https://www.biblegateway.com/passage/?search=Exod.17.16&version=ESV"">17:16</a>, Num <a href=""https://www.biblegateway.com/passage/?search=Num.13.29&version=NASB"">13:29</a>, <a href=""https://www.biblegateway.com/passage/?search=Num.24.20&version=ESV"">24:20</a>, <a href=""https://www.biblegateway.com/passage/?search=Num.24.24&version=NKJV"">24:24</a>, Deut <a href=""https://www.biblegateway.com/passage/?search=Deut.25.17&version=ESV"">25:17</a>, <a href=""https://www.biblegateway.com/passage/?search=Deut.25.19&version=ESV"">25:19</a>, Judg <a href=""https://www.biblegateway.com/passage/?search=Judg.3.13&version=NASB"">3:13</a>, <a href=""https://www.biblegateway.com/passage/?search=Judg.5.14&version=NIV"">5:14</a>, <a href=""https://www.biblegateway.com/passage/?search=Judg.6.3&version=NLT"">6:3</a>, <a href=""https://www.biblegateway.com/passage/?search=Judg.6.33&version=NLT"">6:33</a>, <a href=""https://www.biblegateway.com/passage/?search=Judg.7.12&version=NLT"">7:12</a>, <a href=""https://www.biblegateway.com/passage/?search=Judg.10.12&version=NET"">10:12</a>, 1Sam <a href=""https://www.biblegateway.com/passage/?search=1Sam.15.2&version=ESV"">15:2</a>, <a href=""https://www.biblegateway.com/passage/?search=1Sam.15.3&version=ESV"">15:3</a>, <a href=""https://www.biblegateway.com/passage/?search=1Sam.15.5&version=ESV"">15:5</a>, <a href=""https://www.biblegateway.com/passage/?search=1Sam.15.8&version=CSB"">15:8</a>, <a href=""https://www.biblegateway.com/passage/?search=1Sam.15.20&version=ESV"">15:20</a>, <a href=""https://www.biblegateway.com/passage/?search=1Sam.15.32&version=CSB"">15:32</a>, <a href=""https://www.biblegateway.com/passage/?search=1Sam.28.18&version=ESV"">28:18</a>, 2Sam <a href=""https://www.biblegateway.com/passage/?search=2Sam.8.12&version=ESV"">8:12</a>, 1Chr <a href=""https://www.biblegateway.com/passage/?search=1Chr.18.11&version=ESV"">18:11</a>, Ps <a href=""https://www.biblegateway.com/passage/?search=Ps.83.7&version=ESV"">83:7</a>";;34.30407;31.0779;0
Amalek (20% confidence);"Exod <a href=""https://www.biblegateway.com/passage/?search=Exod.17.8&version=ESV"">17:8</a>, <a href=""https://www.biblegateway.com/passage/?search=Exod.17.9&version=ESV"">17:9</a>, <a href=""https://www.biblegateway.com/passage/?search=Exod.17.10&version=ESV"">17:10</a>, <a href=""https://www.biblegateway.com/passage/?search=Exod.17.11&version=ESV"">17:11</a>, <a href=""https://www.biblegateway.com/passage/?search=Exod.17.13&version=ESV"">17:13</a>, <a href=""https://www.biblegateway.com/passage/?search=Exod.17.14&version=ESV"">17:14</a>, <a href=""https://www.biblegateway.com/passage/?search=Exod.17.16&version=ESV"">17:16</a>, Num <a href=""https://www.biblegateway.com/passage/?search=Num.13.29&version=NASB"">13:29</a>, <a href=""https://www.biblegateway.com/passage/?search=Num.24.20&version=ESV"">24:20</a>, <a href=""https://www.biblegateway.com/passage/?search=Num.24.24&version=NKJV"">24:24</a>, Deut <a href=""https://www.biblegateway.com/passage/?search=Deut.25.17&version=ESV"">25:17</a>, <a href=""https://www.biblegateway.com/passage/?search=Deut.25.19&version=ESV"">25:19</a>, Judg <a href=""https://www.biblegateway.com/passage/?search=Judg.3.13&version=NASB"">3:13</a>, <a href=""https://www.biblegateway.com/passage/?search=Judg.5.14&version=NIV"">5:14</a>, <a href=""https://www.biblegateway.com/passage/?search=Judg.6.3&version=NLT"">6:3</a>, <a href=""https://www.biblegateway.com/passage/?search=Judg.6.33&version=NLT"">6:33</a>, <a href=""https://www.biblegateway.com/passage/?search=Judg.7.12&version=NLT"">7:12</a>, <a href=""https://www.biblegateway.com/passage/?search=Judg.10.12&version=NET"">10:12</a>, 1Sam <a href=""https://www.biblegateway.com/passage/?search=1Sam.15.2&version=ESV"">15:2</a>, <a href=""https://www.biblegateway.com/passage/?search=1Sam.15.3&version=ESV"">15:3</a>, <a href=""https://www.biblegateway.com/passage/?search=1Sam.15.5&version=ESV"">15:5</a>, <a href=""https://www.biblegateway.com/passage/?search=1Sam.15.8&version=CSB"">15:8</a>, <a href=""https://www.biblegateway.com/passage/?search=1Sam.15.20&version=ESV"">15:20</a>, <a href=""https://www.biblegateway.com/passage/?search=1Sam.15.32&version=CSB"">15:32</a>, <a href=""https://www.biblegateway.com/passage/?search=1Sam.28.18&version=ESV"">28:18</a>, 2Sam <a href=""https://www.biblegateway.com/passage/?search=2Sam.8.12&version=ESV"">8:12</a>, 1Chr <a href=""https://www.biblegateway.com/passage/?search=1Chr.18.11&version=ESV"">18:11</a>, Ps <a href=""https://www.biblegateway.com/passage/?search=Ps.83.7&version=ESV"">83:7</a>";;34.25102;31.0779;0
Amalek (10% confidence);"Exod <a href=""https://www.biblegateway.com/passage/?search=Exod.17.8&version=ESV"">17:8</a>, <a href=""https://www.biblegateway.com/passage/?search=Exod.17.9&version=ESV"">17:9</a>, <a href=""https://www.biblegateway.com/passage/?search=Exod.17.10&version=ESV"">17:10</a>, <a href=""https://www.biblegateway.com/passage/?search=Exod.17.11&version=ESV"">17:11</a>, <a href=""https://www.biblegateway.com/passage/?search=Exod.17.13&version=ESV"">17:13</a>, <a href=""https://www.biblegateway.com/passage/?search=Exod.17.14&version=ESV"">17:14</a>, <a href=""https://www.biblegateway.com/passage/?search=Exod.17.16&version=ESV"">17:16</a>, Num <a href=""https://www.biblegateway.com/passage/?search=Num.13.29&version=NASB"">13:29</a>, <a href=""https://www.biblegateway.com/passage/?search=Num.24.20&version=ESV"">24:20</a>, <a href=""https://www.biblegateway.com/passage/?search=Num.24.24&version=NKJV"">24:24</a>, Deut <a href=""https://www.biblegateway.com/passage/?search=Deut.25.17&version=ESV"">25:17</a>, <a href=""https://www.biblegateway.com/passage/?search=Deut.25.19&version=ESV"">25:19</a>, Judg <a href=""https://www.biblegateway.com/passage/?search=Judg.3.13&version=NASB"">3:13</a>, <a href=""https://www.biblegateway.com/passage/?search=Judg.5.14&version=NIV"">5:14</a>, <a href=""https://www.biblegateway.com/passage/?search=Judg.6.3&version=NLT"">6:3</a>, <a href=""https://www.biblegateway.com/passage/?search=Judg.6.33&version=NLT"">6:33</a>, <a href=""https://www.biblegateway.com/passage/?search=Judg.7.12&version=NLT"">7:12</a>, <a href=""https://www.biblegateway.com/passage/?search=Judg.10.12&version=NET"">10:12</a>, 1Sam <a href=""https://www.biblegateway.com/passage/?search=1Sam.15.2&version=ESV"">15:2</a>, <a href=""https://www.biblegateway.com/passage/?search=1Sam.15.3&version=ESV"">15:3</a>, <a href=""https://www.biblegateway.com/passage/?search=1Sam.15.5&version=ESV"">15:5</a>, <a href=""https://www.biblegateway.com/passage/?search=1Sam.15.8&version=CSB"">15:8</a>, <a href=""https://www.biblegateway.com/passage/?search=1Sam.15.20&version=ESV"">15:20</a>, <a href=""https://www.biblegateway.com/passage/?search=1Sam.15.32&version=CSB"">15:32</a>, <a href=""https://www.biblegateway.com/passage/?search=1Sam.28.18&version=ESV"">28:18</a>, 2Sam <a href=""https://www.biblegateway.com/passage/?search=2Sam.8.12&version=ESV"">8:12</a>, 1Chr <a href=""https://www.biblegateway.com/passage/?search=1Chr.18.11&version=ESV"">18:11</a>, Ps <a href=""https://www.biblegateway.com/passage/?search=Ps.83.7&version=ESV"">83:7</a>";;34.22449;30.80387;0
Amalek;"Exod <a href=""https://www.biblegateway.com/passage/?search=Exod.17.8&version=ESV"">17:8</a>, <a href=""https://www.biblegateway.com/passage/?search=Exod.17.9&version=ESV"">17:9</a>, <a href=""https://www.biblegateway.com/passage/?search=Exod.17.10&version=ESV"">17:10</a>, <a href=""https://www.biblegateway.com/passage/?search=Exod.17.11&version=ESV"">17:11</a>, <a href=""https://www.biblegateway.com/passage/?search=Exod.17.13&version=ESV"">17:13</a>, <a href=""https://www.biblegateway.com/passage/?search=Exod.17.14&version=ESV"">17:14</a>, <a href=""https://www.biblegateway.com/passage/?search=Exod.17.16&version=ESV"">17:16</a>, Num <a href=""https://www.biblegateway.com/passage/?search=Num.13.29&version=NASB"">13:29</a>, <a href=""https://www.biblegateway.com/passage/?search=Num.24.20&version=ESV"">24:20</a>, <a href=""https://www.biblegateway.com/passage/?search=Num.24.24&version=NKJV"">24:24</a>, Deut <a href=""https://www.biblegateway.com/passage/?search=Deut.25.17&version=ESV"">25:17</a>, <a href=""https://www.biblegateway.com/passage/?search=Deut.25.19&version=ESV"">25:19</a>, Judg <a href=""https://www.biblegateway.com/passage/?search=Judg.3.13&version=NASB"">3:13</a>, <a href=""https://www.biblegateway.com/passage/?search=Judg.5.14&version=NIV"">5:14</a>, <a href=""https://www.biblegateway.com/passage/?search=Judg.6.3&version=NLT"">6:3</a>, <a href=""https://www.biblegateway.com/passage/?search=Judg.6.33&version=NLT"">6:33</a>, <a href=""https://www.biblegateway.com/passage/?search=Judg.7.12&version=NLT"">7:12</a>, <a href=""https://www.biblegateway.com/passage/?search=Judg.10.12&version=NET"">10:12</a>, 1Sam <a href=""https://www.biblegateway.com/passage/?search=1Sam.15.2&version=ESV"">15:2</a>, <a href=""https://www.biblegateway.com/passage/?search=1Sam.15.3&version=ESV"">15:3</a>, <a href=""https://www.biblegateway.com/passage/?search=1Sam.15.5&version=ESV"">15:5</a>, <a href=""https://www.biblegateway.com/passage/?search=1Sam.15.8&version=CSB"">15:8</a>, <a href=""https://www.biblegateway.com/passage/?search=1Sam.15.20&version=ESV"">15:20</a>, <a href=""https://www.biblegateway.com/passage/?search=1Sam.15.32&version=CSB"">15:32</a>, <a href=""https://www.biblegateway.com/passage/?search=1Sam.28.18&version=ESV"">28:18</a>, 2Sam <a href=""https://www.biblegateway.com/passage/?search=2Sam.8.12&version=ESV"">8:12</a>, 1Chr <a href=""https://www.biblegateway.com/passage/?search=1Chr.18.11&version=ESV"">18:11</a>, Ps <a href=""https://www.biblegateway.com/passage/?search=Ps.83.7&version=ESV"">83:7</a>";;34.422222;30.648333;0
Amam / Be?er Nevatim;"Josh <a href=""https://www.biblegateway.com/passage/?search=Josh.15.26&version=ESV"">15:26</a>";;34.90684;31.2185;0
Amam / Bir el Esani;"Josh <a href=""https://www.biblegateway.com/passage/?search=Josh.15.26&version=ESV"">15:26</a>";;34.58011;31.19186;0
Amam / Nahal Yattir 205;"Josh <a href=""https://www.biblegateway.com/passage/?search=Josh.15.26&version=ESV"">15:26</a>";;34.897308;31.243718;0
Amana / Jebel Zabadani;"Song <a href=""https://www.biblegateway.com/passage/?search=Song.4.8&version=ESV"">4:8</a>";;36.013654;33.621927;0
Amana / Jebel Zabadani;"Song <a href=""https://www.biblegateway.com/passage/?search=Song.4.8&version=ESV"">4:8</a>";;36.031667;33.688889;0
Amana / Mount Amana;"Song <a href=""https://www.biblegateway.com/passage/?search=Song.4.8&version=ESV"">4:8</a>";;35.963333;33.567778;0
Amate / along the Karkheh River;"Num <a href=""https://www.biblegateway.com/passage/?search=Num.22.5&version=ESV"">22:5</a>";another name for Aiath;47.198778;33.292032;0
Amate / along the Karkheh River;"Num <a href=""https://www.biblegateway.com/passage/?search=Num.22.5&version=ESV"">22:5</a>";another name for Aiath;47.869402;31.782302;0
Amate / along the Karun River;"Num <a href=""https://www.biblegateway.com/passage/?search=Num.22.5&version=ESV"">22:5</a>";another name for Aiath;50.469074;31.635166;0
Amate / along the Karun River;"Num <a href=""https://www.biblegateway.com/passage/?search=Num.22.5&version=ESV"">22:5</a>";another name for Aiath;48.1654;30.4275;0
Amaw / between Aleppo and Carchemish;"Num <a href=""https://www.biblegateway.com/passage/?search=Num.22.5&version=ESV"">22:5</a>";;38.216979;35.914263;0
Amaw / between Aleppo and Carchemish;"Num <a href=""https://www.biblegateway.com/passage/?search=Num.22.5&version=ESV"">22:5</a>";;38.0865;36.7014;0
Amaw (90% confidence);"Num <a href=""https://www.biblegateway.com/passage/?search=Num.22.5&version=ESV"">22:5</a>";;35.85219;31.95434;0
Amaw (80% confidence);"Num <a href=""https://www.biblegateway.com/passage/?search=Num.22.5&version=ESV"">22:5</a>";;35.85219;31.92407;0
Amaw (70% confidence);"Num <a href=""https://www.biblegateway.com/passage/?search=Num.22.5&version=ESV"">22:5</a>";;36.13457;31.80298;0
Amaw (60% confidence);"Num <a href=""https://www.biblegateway.com/passage/?search=Num.22.5&version=ESV"">22:5</a>";;35.99338;32.19651;0
Amaw (50% confidence);"Num <a href=""https://www.biblegateway.com/passage/?search=Num.22.5&version=ESV"">22:5</a>";;35.7816;31.92407;0
Amaw (40% confidence);"Num <a href=""https://www.biblegateway.com/passage/?search=Num.22.5&version=ESV"">22:5</a>";;35.7816;31.86352;0
Amaw (30% confidence);"Num <a href=""https://www.biblegateway.com/passage/?search=Num.22.5&version=ESV"">22:5</a>";;35.71101;32.07543;0
Amaw (20% confidence);"Num <a href=""https://www.biblegateway.com/passage/?search=Num.22.5&version=ESV"">22:5</a>";;35.71101;31.95434;0
Amaw (10% confidence);"Num <a href=""https://www.biblegateway.com/passage/?search=Num.22.5&version=ESV"">22:5</a>";;36.06397;31.43971;0
Amaw / Ammon;"Num <a href=""https://www.biblegateway.com/passage/?search=Num.22.5&version=ESV"">22:5</a>";another name for Ashan;35.9343;31.9547;0
Ammah / in the region east of Gibeon;"2Sam <a href=""https://www.biblegateway.com/passage/?search=2Sam.2.24&version=ESV"">2:24</a>";;35.220887;31.869794;0
Ammah / in the region east of Gibeon;"2Sam <a href=""https://www.biblegateway.com/passage/?search=2Sam.2.24&version=ESV"">2:24</a>";;35.279535;31.841047;0
Ammah / within 10 km of Sahel Geba;"2Sam <a href=""https://www.biblegateway.com/passage/?search=2Sam.2.24&version=ESV"">2:24</a>";;35.27954;31.93098;0
Ammah / within 10 km of Sahel Geba;"2Sam <a href=""https://www.biblegateway.com/passage/?search=2Sam.2.24&version=ESV"">2:24</a>";;35.279535;31.841047;0
